{"type":"FeatureCollection","features":[
{"type":"Feature","geometry":{"type":"Point","coordinates":[135.0662531,48.4774901]},"properties":{"highway":"traffic_signals"}},
{"type":"Feature","geometry":{"type":"Point","coordinates":[135.0703906,48.4802944]},"properties":{"bus":"yes","name":"Площадь им. Ленина","public_transport":"stop_position"}},
{"type":"Feature","geometry":{"type":"Point","coordinates":[131.8855768,43.1150678]},"properties":{"admin_level":"4","capital":"3","ele":"40","loc_name":"Владик","name":"Владивосток","name:af":"Wladiwostok","name:am":"ቭላዲቮስቶክ","name:ar":"فلاديفوستوك","name:az":"Vladivostok","name:be":"Уладзівасток","name:bn":"ভ্লাদিভোস্টক","name:br":"Vladivostok","name:bs":"Vladivostok","name:ca":"Vladivostok","name:cs":"Vladivostok","name:cu":"Владивъстокъ","name:da":"Vladivostok","name:de":"Wladiwostok","name:el":"Βλαδιβοστόκ","name:en":"Vladivostok","name:eo":"Vladivostoko","name:es":"Vladivostok","name:et":"Vladivostok","name:eu":"Vladivostok","name:fa":"ولادی‌وستوک","name:fi":"Vladivostok","name:fo":"Vladivostok","name:fr":"Vladivostok","name:fy":"Wladiwostok","name:ga":"Vladivostok","name:gl":"Vladivostok","name:ha":"Vladivostok","name:he":"ולדיווסטוק","name:hi":"व्लादिवोस्तोक","name:hr":"Vladivostok","name:hu":"Vlagyivosztok","name:hy":"Վլադիվոստոկ","name:id":"Vladivostok","name:io":"Vladivostok","name:is":"Vladívostok","name:it":"Vladivostok","name:ja":"ウラジオストク","name:ka":"ვლადივოსტოკი","name:kn":"ವ್ಲಾದಿವೋಸ್ತೊಕ","name:ko":"블라디보스토크","name:la":"Vladivostokium","name:lb":"Wladiwostok","name:lo":"ວລາດິໂວສະຕັອກ","name:lt":"Vladivostokas","name:lv":"Vladivostoka","name:ml":"വ്ലാഡിവോസ്റ്റോക്ക്","name:mnc":"ᡥᠠᡳ᠌ᡧᡝᠨᠸᡝᡳ","name:mr":"व्लादिवोस्तॉक","name:ms":"Vladivostok","name:mt":"Vladivostok","name:nb":"Vladivostok","name:nl":"Vladivostok","name:nn":"Vladivostok","name:pa":"ਵਲਾਦੀਵੋਸਤੋਕ","name:pl":"Władywostok","name:ps":"ولاديوستوک","name:pt":"Vladivostoque","name:rn":"Vladivostok","name:ro":"Vladivostok","name:ru":"Владивосток","name:ru:word_stress":"Владивосто́к","name:sk":"Vladivostok","name:sl":"Vladivostok","name:sv":"Vladivostok","name:sw":"Vladivostok","name:ta":"விளாதிவசுத்தோக்","name:th":"วลาดีวอสตอค","name:tk":"Wladiwostok","name:tl":"Vladivostok","name:tr":"Vladivostok","name:tw":"Vladivostok","name:uk":"Владивосток","name:ur":"ولادیوستوک","name:uz":"Vladivostok","name:vi":"Vladivostok","name:wo":"Vladivostok","name:yi":"וולאדיוואסטאק","name:zh":"海参崴","name:zh-Hans":"海参崴","name:zh-Hant":"海參崴","official_name:zh":"符拉迪沃斯托克","official_name:zh-Hans":"符拉迪沃斯托克","official_name:zh-Hant":"符拉迪沃斯託克","official_status":"ru:город","place":"city","population":"594201","population:date":"2025-01-01","population:source":"https://ru.wikipedia.org/wiki/Владивосток","reg_name":"Влад","source:population":"wikipedia","start_date":"1860","website":"http://www.vlc.ru/","wikidata":"Q959","wikipedia":"ru:Владивосток"}},
{"type":"Feature","geometry":{"type":"Point","coordinates":[173.2378362,52.9237966]},"properties":{"boundary":"protected_area","ele":"42","gnis:feature_id":"1416083","heritage":"2","heritage:operator":"nrhp","heritage:website":"https://www.nps.gov/subjects/nationalregister/index.htm","historic":"battlefield","name":"Attu Village","nrhp:criteria":"(A)","nrhp:inscription_date":"1985-02-04","nrhp:nhl":"yes","place":"hamlet","population":"0","protect_class":"22","protection_title":"U.S. Fish and Wildlife Service","ref:nrhp":"85002729","source_ref":"https://catalog.archives.gov/id/75325281","start_date":"1942"}},
{"type":"Feature","geometry":{"type":"Point","coordinates":[173.1755556,52.8408333]},"properties":{"abandoned":"yes","ele":"37","end_date":"2010","gnis:feature_id":"1416259","import_uuid":"bb7269ee-502a-5391-8056-e3ce0e66489c","name":"Navy Town","place":"locality","wikidata":"Q6982693","wikipedia":"en:Navy Town, Alaska"}},
{"type":"Feature","geometry":{"type":"Point","coordinates":[178.8749407,51.5684172]},"properties":{"ele":"0","gnis:feature_id":"1866932","name":"Amchitka","place":"hamlet"}},
{"type":"Feature","geometry":{"type":"Point","coordinates":[129.7319787,62.0274078]},"properties":{"alt_name":"Дьокуускай","capital":"4","contact:email":"yakutsk@sakha.ru","contact:website":"https://yakutskcity.ru","ele":"194","flag":"https://upload.wikimedia.org/wikipedia/commons/thumb/4/40/Flag_of_Yakutsk.svg/2000px-Flag_of_Yakutsk.svg.png","int_name":"Yakutsk","name":"Якутск","name:af":"Jakoetsk","name:ar":"ياكوتسك","name:az":"Yakutsk","name:ba":"Яҡутск","name:be":"Якуцк","name:bn":"ইয়াকুতস্ক","name:bs":"Jakutsk","name:ca":"Iakutsk","name:ckb":"یاکوتسک","name:cs":"Jakutsk","name:cy":"Yakutsk","name:da":"Jakutsk","name:de":"Jakutsk","name:el":"Γιακούτσκ","name:en":"Yakutsk","name:eo":"Jakutsko","name:es":"Yakutsk","name:et":"Jakutsk","name:eu":"Jakutsk","name:fa":"یاکوتسک","name:fi":"Jakutsk","name:fr":"Iakoutsk","name:he":"יקוטסק","name:hi":"याकूत्स्क","name:hr":"Jakutsk","name:hu":"Jakutszk","name:hy":"Յակուտսկ","name:ia":"Yakutsk","name:id":"Yakutsk","name:ie":"Yakutsk","name:it":"Jakutsk","name:ja":"ヤクーツク","name:ko":"야쿠츠크","name:ku":"Yakutisk","name:la":"Iacutia","name:lt":"Jakutskas","name:lv":"Jakutska","name:mi":"Hākutiki","name:mk":"Јакутск","name:mr":"याकुत्स्क","name:ms":"Yakutsk","name:nb":"Jakutsk","name:nl":"Jakoetsk","name:nn":"Jakutsk","name:oc":"Iacotsk","name:pa":"ਜਾਕੁਤਸਕ","name:pl":"Jakuck","name:ps":"ياکوتسک","name:pt":"Iacutusque","name:ro":"Iakutsk","name:ru":"Якутск","name:ru:word_stress":"Яку́тск","name:sah":"Дьокуускай","name:sk":"Jakutsk","name:sl":"Jakutsk","name:sq":"Gjokuskaj","name:sr":"Јакутск","name:sv":"Jakutsk","name:sw":"Yakutsk","name:ta":"யாகுட்சுக்கு","name:th":"ยาคุตสค์","name:tk":"Ýakutsk","name:tl":"Yakutsk","name:tr":"Yakutsk","name:uk":"Якутськ","name:ur":"یاقوتسک","name:uz":"Yakutsk","name:vi":"Yakutsk","name:wo":"Yakutsk","name:xh":"Yakutsk","name:zh":"雅库茨克","name:zh-Hans":"雅库茨克","name:zh-Hant":"雅庫茨克","official_status":"ru:город","place":"city","population":"361154","population:date":"2023-01-01","start_date":"1632","wikidata":"Q6610","wikipedia":"ru:Якутск"}},
{"type":"Feature","geometry":{"type":"Point","coordinates":[158.6471356,53.0199838]},"properties":{"addr:country":"RU","addr:postcode":"683000","addr:region":"Камчатский край","admin_level":"4","capital":"4","contact:website":"http://www.pkgo.ru","image":"https://upload.wikimedia.org/wikipedia/commons/3/3d/Петропавловск_Камчатский_(141778453).jpeg","int_name":"Petropavlovsk-Kamchatsky","name":"Петропавловск-Камчатский","name:af":"Petropawlofsk-Kamtsjatski","name:ar":"بيتروبافلوفسك-كامتشاتسكي","name:az":"Petropavlovsk-Kamçatski","name:be":"Петрапаўлаўск-Камчацкі","name:bg":"Петропавловск Камчатски","name:bn":"পেত্রোপাভলভস্ক-কামচাতস্কি","name:ca":"Petropàvlovsk-Kamtxatski","name:ce":"Петропавловск-Камчатски","name:cs":"Petropavlovsk-Kamčatskij","name:cv":"Петропавловск-Камчаткăри","name:cy":"Petropavlovsk-Kamchatsky","name:da":"Petropavlovsk-Kamtjatskij","name:de":"Petropawlowsk-Kamtschatski","name:el":"Πετροπάβλοφσκ Καμτσάτσκι","name:en":"Petropavlovsk-Kamchatsky","name:eo":"Petropavlovsk-Kamĉatskij","name:es":"Petropávlovsk-Kamchatski","name:et":"Petropavlovsk-Kamtšatski","name:eu":"Petropavlovsk-Kamtxatski","name:fa":"پتروپاولوفسک-کامچاتسکیی","name:fi":"Petropavlovsk-Kamtšatski","name:fr":"Petropavlovsk-Kamtchatski","name:ha":"Petropavlovsk-Kamchatsky","name:he":"פטרופבלובסק-קמצ'טסקי","name:hr":"Petropavlovsk-Kamčatski","name:hu":"Petropavlovszk-Kamcsatszkij","name:hy":"Կամչատկայի Պետրոպավլովսկ","name:id":"Petropavlovsk-Kamchatsky","name:is":"Petropavlovsk-Kamtsjatskíj","name:it":"Petropavlovsk-Kamčatskij","name:ja":"ペトロパブロフスク=カムチャツキー","name:ka":"პეტროპავლოვსკ-კამჩატსკი","name:ko":"페트로파블롭스크캄차츠키","name:la":"Portus Petri et Pauli","name:lt":"Kamčiatkos Petropavlovskas","name:lv":"Petropavlovska-Kamčatska","name:mk":"Петропавловск Камчатски","name:mr":"पेत्रोपावलोव्स्क-कामचत्स्की","name:ms":"Petropavlovsk-Kamchatsky","name:nb":"Petropavlovsk-Kamtsjatskij","name:nl":"Petropavlovsk-Kamtsjatski","name:nn":"Petropavlovsk-Kamtsjatskij","name:pl":"Pietropawłowsk Kamczacki","name:ps":"پېټروپولوفسک کامچاټسکي","name:pt":"Petropavlovsk-Kamchatskiy","name:ro":"Petropavlovsk-Kamceatski","name:ru":"Петропавловск-Камчатский","name:ru:word_stress":"Петропа́вловск-Камча́тский","name:sk":"Petropavlovsk-Kamčatskij","name:sl":"Petropavlovsk-Kamcatski","name:sr":"Петропавловск Камчатски","name:sv":"Petropavlovsk-Kamtjatskij","name:sw":"Petropavlovsk-Kamchatskiy","name:th":"ปิตราปัฟลัฟสค์-คัมชัตสกี","name:tk":"Petropavlovsk-Kamçatskiý","name:tl":"Petropavlovsk-Kamchatsky","name:tr":"Petropavlovsk-Kamçatski","name:uk":"Петропавловськ-Камчатський","name:ur":"پٹروپاولوسک-کامچاٹسکی","name:uz":"Petropavlovsk-kamchatskiy","name:vi":"Petropavlovsk-Kamchatskiy","name:zh":"堪察加彼得巴甫洛夫斯克","name:zh-Hant":"堪察加彼得巴夫洛夫斯克","official_status":"ru:город","old_name":"Петропавловский острог;Петропавловская гавань;Петропавловский порт;","place":"city","population":"163152","population:date":"2024-01-01","start_date":"1740","wikidata":"Q7951","wikipedia":"ru:Петропавловск-Камчатский"}},
{"type":"Feature","geometry":{"type":"Point","coordinates":[142.727438,46.9574273]},"properties":{"addr:country":"RU","addr:region":"Сахалинская область","admin_level":"4","capital":"4","int_name":"Yuzhno-Sakhalinsk","name":"Южно-Сахалинск","name:af":"Joezjno-Sachalinsk","name:ar":"يوجنو-ساخالينسك","name:az":"Yujno-Saxalinsk","name:be":"Южна-Сахалінск","name:bg":"Южносахалинск","name:ca":"Iujno-Sakhalinsk","name:cs":"Južno-Sachalinsk","name:cy":"Yuzhno-Sakhalinsk","name:da":"Juzjno-Sakhalinsk","name:de":"Juschno-Sachalinsk","name:el":"Γιούζνο-Σαχαλίνσκ","name:en":"Yuzhno-Sakhalinsk","name:eo":"Juĵno-Saĥalinsk","name:es":"Yuzhno-Sajalinsk","name:et":"Južno-Sahhalinsk","name:eu":"Juzhno-Sakhalinsk","name:fa":"یوژنو-ساخالینسک","name:fi":"Južno-Sahalinsk","name:fr":"Ioujno-Sakhalinsk","name:fy":"Jûzjno-Sachalinsk","name:ga":"Yuzhno-Sakhalinsk","name:he":"יוז'נו-סחלינסק","name:hr":"Južno-Sahalinsk","name:hu":"Juzsno-Szahalinszk","name:hy":"Յուժնո-Սախալինսկ","name:ia":"Yuzhno-Sakhalinsk","name:id":"Yuzhno-Sakhalinsk","name:it":"Južno-Sachalinsk","name:ja":"ユジノ=サハリンスク","name:ko":"유즈노사할린스크","name:la":"Basilianum","name:lt":"Južno Sachalinskas","name:lv":"Južnosahaļinska","name:mn":"Өмнөд Сахалинск","name:mr":"युझ्नो-साखालिन्स्क","name:nb":"Juzjno-Sakhalinsk","name:nl":"Joezjno-Sachalinsk","name:nn":"Juzjno-Sakhalinsk","name:pl":"Jużnosachalińsk","name:pt":"Iujno-Sakhalinsk","name:ro":"Iujno-Sahalinsk","name:ru":"Южно-Сахалинск","name:ru:word_stress":"Ю́жно-Сахали́нск","name:sk":"Južno-Sachalinsk","name:sl":"Juzno-Sahalinsk","name:sr":"Јужно-Сахалинск","name:sv":"Juzjno-Sachalinsk","name:sw":"Yuzhno-Sakhalinsk","name:th":"ยุจโน-ซาฮาลินสค์","name:tk":"Ýužno-Sahalinsk","name:tl":"Yuzhno-Sakhalinsk","name:tr":"Yujno-Sahalinsk","name:uk":"Южно-Сахалінськ","name:ur":"یوژنو-سخالنسک","name:uz":"Yujno-saxalinsk","name:vi":"Yuzhno-Sakhalinsk","name:zh":"南萨哈林斯克","name:zh-Hans":"南萨哈林斯克","name:zh-Hant":"南薩哈林斯克","official_status":"ru:город","old_name:1882-1905":"Владимировка","old_name:1905-1946":"豊原市 (Toyohara)","old_name:cs:1882-1905":"Vladimirovka","old_name:cs:1905-1946":"Tojohara","old_name:en:1882-1905":"Vladimirovka","old_name:en:1905-1946":"Toyohara","old_name:ja:1905-1946":"豊原市","old_name:ru:1882-1905":"Владимировка","old_name:ru:1905-1946":"Тоёхара","old_name:zh-Hans:1905-1946":"丰原市","old_name:zh-Hant:1905-1946":"豐原市","old_name:zh:1905-1946":"丰原市","place":"city","population":"180467","population:date":"2023-01-01","start_date":"1882","website":"https://yuzhno-sakh.ru/","wikidata":"Q7859","wikipedia":"ru:Южно-Сахалинск"}},
{"type":"Feature","geometry":{"type":"Point","coordinates":[177.5060925,64.7316875]},"properties":{"addr:country":"RU","addr:district":"городской округ Анадырь","addr:postcode":"689000","addr:region":"Чукотский автономный округ","alt_name":"Кагыргын; Въэӈын","capital":"4","ele":"35","image":"https://upload.wikimedia.org/wikipedia/commons/8/8d/Bird_view_of_Anadyr.jpg","int_name":"Anadyr","loc_name":"Кагыргын;Въэӈын;Онандырь","name":"Анадырь","name:af":"Anadir","name:ar":"أنادير","name:az":"Anadır","name:be":"Анадыр","name:bg":"Анадир","name:ca":"Anadir","name:ckb":"ئەنادر","name:cs":"Anadyr","name:de":"Anadyr","name:el":"Ανάντιρ","name:en":"Anadyr","name:eo":"Anadir","name:es":"Anádyr","name:et":"Anadõr","name:eu":"Anadyr","name:fa":"آنادیر","name:fi":"Anadyr","name:fr":"Anadyr","name:he":"אנאדיר","name:hr":"Anadir","name:hu":"Anadir","name:hy":"Անադիր","name:id":"Anadyr","name:io":"Anadir","name:it":"Anadyr'","name:iu":"ᑲᒌᕐᒌᓐ","name:ja":"アナディリ","name:ka":"ანადირი","name:ko":"아나디리","name:la":"Anadyr","name:lt":"Anadyris","name:lv":"Anadira","name:mk":"Анадир","name:ms":"Anadyr","name:nb":"Anadyr","name:nl":"Anadyr","name:nn":"Anadyr","name:pa":"ਅਨਾਦਿਰ","name:pl":"Anadyr","name:ps":"انادير","name:pt":"Anadyr","name:ro":"Anadîr","name:ru":"Анадырь","name:sk":"Anadyr","name:sl":"Anadir","name:sr":"Анадир","name:sv":"Anadyr","name:sw":"Anadyr","name:tg":"Анадир","name:th":"อะนาดีร์","name:tl":"Anadyr","name:tr":"Anadır","name:uk":"Анадир","name:ur":"آنادیر","name:uz":"Anadir","name:vi":"Anadyr","name:zh":"阿纳德尔","official_status":"ru:город","old_name":"Ново-Мариинск","place":"town","population":"13043","population:date":"2024-01-01","postal_code":"689000","start_date":"1889","website":"http://www.adm.anadyr.ru","wikidata":"Q7978","wikipedia":"ru:Анадырь"}},
{"type":"Feature","geometry":{"type":"Point","coordinates":[132.9269836,48.79329]},"properties":{"addr:country":"RU","addr:region":"Еврейская автономная область","admin_level":"4","capital":"4","contact:website":"http://www.biradm.ru","int_name":"Birobidzhan","name":"Биробиджан","name:af":"Birobidzjan","name:ar":"بيروبيجان","name:az":"Birobican","name:be":"Бірабіджан","name:bs":"Birobidžan","name:ca":"Birobidjan","name:cs":"Birobidžan","name:da":"Birobidzjan","name:de":"Birobidschan","name:el":"Μπιρομπιτζάν","name:en":"Birobidzhan","name:eo":"Birobiĝano","name:es":"Birobidzhán","name:et":"Birobidžan","name:eu":"Birobidzhan","name:fa":"بیروبیجان","name:fi":"Birobidžan","name:fr":"Birobidjan","name:fy":"Birobidzjan","name:ha":"Birobidzhan","name:he":"בירוביג'ן","name:hr":"Birobidžan","name:hu":"Birobidzsan","name:hy":"Բիրոբիջան","name:id":"Birobidzhan","name:it":"Birobidžan","name:ja":"ビロビジャン","name:ka":"ბირობიჯანი","name:ko":"비로비잔","name:ku":"Bîrobîcan","name:ky":"Биробижан","name:lad":"Birobidjan","name:lb":"Birobidjan","name:li":"Birobidžan","name:lt":"Birobidžanas","name:lv":"Birobidžana","name:mk":"Биробиџан","name:mn":"Биробижан","name:mr":"बिरोबिद्झान","name:nb":"Birobidzjan","name:nl":"Birobidzjan","name:nn":"Birobidzjan","name:no":"Birobidzjan","name:oc":"Birobidjan","name:pl":"Birobidżan","name:pnb":"بیروبیجان","name:ps":"بيروبيجان","name:pt":"Birobidjan","name:ro":"Birobidjan","name:ru":"Биробиджан","name:ru:word_stress":"Биробиджа́н","name:sco":"Birobidzhan","name:sk":"Birobidžan","name:sr":"Биробиџан","name:sv":"Birobidzjan","name:sw":"Birobijan","name:tg":"Биробиҷон","name:th":"บีโรบิดจัน","name:tk":"Birobijan","name:tl":"Birobidzhan","name:tr":"Birobican","name:tt":"Биробиҗан","name:uk":"Біробіджан","name:ur":"بیروبیجان","name:uz":"Birobijon","name:vep":"Birobidžan","name:vi":"Birobidzhan","name:war":"Birobidzhan","name:yi":"ביראָבידזשאַן","name:zh":"比罗比詹","name:zh-Hans":"比罗比詹","name:zh-Hant":"比羅比詹","official_status":"ru:город","place":"city","population":"68536","population:date":"2023-10-01","wikidata":"Q7769","wikipedia":"ru:Биробиджан"}},
{"type":"Feature","geometry":{"type":"Point","coordinates":[137.0099189,50.5497277]},"properties":{"addr:district":"городской округ Комсомольск-на-Амуре","addr:postcode":"681000","addr:region":"Хабаровский край","contact:website":"https://www.kmscity.ru","flag":"https://upload.wikimedia.org/wikipedia/commons/b/bd/Флаг_Комсомольска-на-Амуре.svg","int_name":"Komsomolsk-on-Amur","name":"Комсомольск-на-Амуре","name:af":"Komsomolsk aan die Amoer","name:ar":"كومسومولسك-نا-أموري","name:ba":"Амурҙағы Комсомольск","name:be":"Камсамольск-на-Амуры","name:bg":"Комсомолск на Амур","name:ca":"Komsomolsk de l'Amur","name:ce":"Амур-тӀера-Комсомольск","name:cs":"Komsomolsk na Amuru","name:da":"Komsomolsk ved Amur","name:de":"Komsomolsk am Amur","name:en":"Komsomolsk-on-Amur","name:eo":"Komsomolsko-ĉe-Amuro","name:es":"Komsomolsk del Amur","name:et":"Komsomolsk Amuuri ääres","name:eu":"Komsomolsk-na-Amure","name:fa":"کامسامولسک بر آمور","name:fi":"Amurin Komsomolsk","name:fr":"Komsomolsk-sur-l'Amour","name:fy":"Komsomolsk oan de Amoer","name:gl":"Komsomolsk-na-Amure","name:he":"קומסומולסק על אמור","name:hr":"Komsomoljsk-na-Amuru","name:hu":"Komszomolszk-na-Amure","name:hy":"Ամուրի Կոմսոմոլսկ","name:id":"Komsomolsk na Amur","name:it":"Komsomol'sk-na-Amure","name:ja":"コムソモリスク=ナ=アムーレ","name:ko":"콤소몰스크나아무레","name:kv":"Амур вылын Комсомольск","name:la":"Permicum","name:lt":"Komsomolskas prie Amūro","name:lv":"Komsomoļska pie Amūras","name:ms":"Komsomolsk-na-Amure","name:nb":"Komsomolsk-na-Amure","name:nl":"Komsomolsk aan de Amoer","name:nn":"Komsomolsk-na-Amure","name:os":"Комсомольск-Амурыл","name:pl":"Komsomolsk nad Amurem","name:ro":"Komsomolsk pe Amur","name:ru":"Комсомольск-на-Амуре","name:ru:word_stress":"Комсомо́льск-на-Аму́ре","name:sk":"Komsomoľsk na Amure","name:sl":"Komsomolsk na Amuru","name:sr":"Комсомољск на Амуру","name:sv":"Komsomolsk-na-Amure","name:sw":"Komsomolsk-na-Amure","name:tl":"Komsomolsk-na-Amure","name:tr":"Komsomolsk-na-Amure","name:tt":"Амурдагы Комсомольск","name:ug":"كومسومول شەھىرى","name:uk":"Комсомольськ-на-Амурі","name:ur":"کومسومولسک نا آمور","name:uz":"Komsomolsk-Amur","name:vi":"Komsomolsk-na-Amur","name:zh":"阿穆尔河畔共青城","name:zh-Hans":"阿穆尔河畔共青城","name:zh-Hant":"阿穆爾河畔共青城","note":"http://khabarovsk.news-city.info/docs/sistemsh/dok_oeyvrz.htm","official_status":"ru:город","old_name":"諸民","place":"city","population":"236158","population:date":"2023-10-01","start_date":"1932-12-10","wikidata":"Q154801","wikipedia":"ru:Комсомольск-на-Амуре"}},
{"type":"Feature","geometry":{"type":"Point","coordinates":[132.8926,42.8246489]},"properties":{"addr:country":"RU","addr:postcode":"692900","addr:region":"Приморский край","alt_name:zh":"漤沟崴","alt_name:zh-Hans":"漤沟崴","alt_name:zh-Hant":"灠溝崴","fias:code":"225a3506-35aa-4456-8bd7-244bdfbc4eaf","int_name":"Nakhodka","name":"Находка","name:ar":"ناخودكا","name:az":"Naxodka","name:ca":"Nakhodka","name:ce":"Находка","name:cs":"Nachodka","name:cy":"Nakhodka","name:da":"Nakhodka","name:de":"Nachodka","name:el":"Ναχόντκα","name:en":"Nakhodka","name:eo":"Naĥodka","name:es":"Najodka","name:et":"Nahhodka","name:eu":"Nakhodka","name:fa":"ناخودکا","name:fi":"Nahodka","name:fr":"Nakhodka","name:he":"נחודקה","name:hr":"Nahodka","name:hu":"Nahodka","name:hy":"Նախոդկա","name:id":"Nakhodka","name:it":"Nachodka","name:ja":"ナホトカ","name:ko":"나홋카","name:la":"Inventum","name:lt":"Nachodka","name:lv":"Nahodka","name:ml":"നഖോഡ്ക","name:nb":"Nakhodka","name:nl":"Nachodka","name:nn":"Nakhodka","name:os":"Находкæ","name:pl":"Nachodka","name:ro":"Nahodka","name:ru":"Находка","name:ru:word_stress":"Нахо́дка","name:sk":"Nachodka","name:sl":"Nahodka","name:sr":"Нахотка","name:sv":"Nachodka","name:th":"นาค็อดกา","name:tl":"Nakhodka","name:tr":"Nahodka","name:uk":"Находка","name:ur":"ناخودکا","name:uz":"Naxodka","name:vi":"Nakhodka","name:wo":"Nakhodka","name:zh":"纳霍德卡（蛏子崴）","name:zh-Hans":"纳霍德卡（蛏子崴）","name:zh-Hant":"納霍德卡（蟶子崴）","official_status":"ru:город","place":"city","population":"133859","population:date":"2025-01-01","population:source":"http://www.gks.ru/wps/wcm/connect/rosstat_main/rosstat/ru/statistics/publications/catalog/afc8ea004d56a39ab251f2bafc3a6fce","source:population":"wikipedia","start_date":"1864","website":"https://www.nakhodka-city.ru/","wikidata":"Q156658","wikipedia":"ru:Находка"}},
{"type":"Feature","geometry":{"type":"Point","coordinates":[131.9520752,43.7972447]},"properties":{"addr:country":"RU","addr:district":"Уссурийский городской округ","addr:postcode":"692500","addr:region":"Приморский край","int_name":"Ussuriysk","name":"Уссурийск","name:ar":"أوسورييسك","name:be":"Усурыйск","name:bg":"Усурийск","name:ca":"Ussuriïsk","name:cs":"Ussurijsk","name:da":"Ussurijsk","name:de":"Ussurijsk","name:en":"Ussurijsk","name:eo":"Ussurijsk","name:es":"Ussuriisk","name:et":"Ussuriisk","name:fa":"اوسورییسک","name:fi":"Ussurijsk","name:fr":"Oussouriïsk","name:hr":"Ussurijsk","name:hu":"Usszurijszk","name:id":"Ussuriysk","name:it":"Ussurijsk","name:ja":"ウスリースク","name:ko":"우수리스크","name:la":"Nicolaopolis","name:lt":"Usurijskas","name:lv":"Usurijska","name:ml":"ഉസ്സുറീസ്ക്","name:mnc":"ᠵᡠᡵᡠ ᡥᠣᡨ᠋ᠣᠨ","name:nb":"Ussurijsk","name:nl":"Oessoeriejsk","name:nn":"Ussurijsk","name:pl":"Ussuryjsk","name:ro":"Ussuriisk","name:ru":"Уссурийск","name:ru:word_stress":"Уссури́йск","name:sl":"Ussurijsk","name:sr":"Усуријск","name:sv":"Ussurijsk","name:tl":"Ussurijsk","name:tr":"Ussuriysk","name:uk":"Уссурійськ","name:ur":"اوسورییسک","name:uz":"Ussuriysk","name:vi":"Ussuriysk","name:zh":"双城子","name:zh-Hans":"双城子","name:zh-Hant":"雙城子","official_name:zh":"乌苏里斯克","official_name:zh-Hans":"乌苏里斯克","official_name:zh-Hant":"烏蘇里斯克","official_status":"ru:город","old_name":"Ворошилов;Никольское;Никольск-Уссурийский;","old_name:en":"Voroshilov","place":"city","population":"205 862","population:date":"2021-01-01","population:source":"http://www.gks.ru/wps/wcm/connect/rosstat_main/rosstat/ru/statistics/publications/catalog/afc8ea004d56a39ab251f2bafc3a6fce","reg_name":"Уссур","source:population":"https://adm-ussuriisk.ru/","start_date":"1866","website":"https://adm-ussuriisk.ru/","wikidata":"Q196934","wikipedia":"ru:Уссурийск"}},
{"type":"Feature","geometry":{"type":"Point","coordinates":[132.1800977,43.3529909]},"properties":{"addr:country":"RU","addr:postcode":"692700","addr:region":"Приморский край","description:en":"Founded in 1924 as a mining town, (last mine closed in 2000). Named after revolutionary Fyodor Sergeyev , \"Comrade Artyom\".","name":"Артём","name:ar":"أرتيوم","name:be":"Арцём","name:bg":"Артьом","name:ca":"Artiom","name:cs":"Arťom","name:de":"Artjom","name:en":"Artyom","name:eo":"Artjom","name:es":"Artiom","name:et":"Artjom","name:fa":"آرتیوم","name:fi":"Artjom","name:fr":"Artiom","name:hr":"Artjom","name:hu":"Artyom","name:io":"Artyom","name:it":"Artëm","name:ja":"アルチョーム","name:ko":"아르툠","name:lt":"Artiomas","name:lv":"Artjoma","name:ml":"ആർട്ടിയോം","name:nb":"Artjom","name:nl":"Artjom","name:nn":"Artjom","name:os":"Артём","name:pl":"Artiom","name:pt":"Artyom","name:ro":"Artiom","name:ru":"Артём","name:sr":"Артјом","name:sv":"Artiom","name:tl":"Artyom","name:tr":"Artyom","name:tt":"Артём","name:uk":"Артем","name:ur":"رتیوم","name:uz":"Artyom","name:vi":"Artyom","name:zh":"阿尔乔姆","name:zh-Hant":"阿爾喬姆","official_status":"ru:город","place":"city","population":"108274","population:date":"2025-01-01","population:source":"http://www.gks.ru/wps/wcm/connect/rosstat_main/rosstat/ru/statistics/publications/catalog/afc8ea004d56a39ab251f2bafc3a6fce","source:description:en":"wikipedia:ru;wikipedia:en","source:population":"wikipedia","start_date":"1924","website":"http://artemokrug.ru/","wikidata":"Q103993","wikipedia":"ru:Артём (город)"}},
{"type":"Feature","geometry":{"type":"Point","coordinates":[-170.2471301,66.1765299]},"properties":{"created_by":"JOSM"}},
{"type":"Feature","geometry":{"type":"Point","coordinates":[-170.24277,66.1740799]},"properties":{"created_by":"JOSM"}},
{"type":"Feature","geometry":{"type":"Point","coordinates":[-170.27976,66.2963501]},"properties":{"created_by":"JOSM"}},
{"type":"Feature","geometry":{"type":"Point","coordinates":[-170.51749,65.7590301]},"properties":{"created_by":"JOSM"}},
{"type":"Feature","geometry":{"type":"Point","coordinates":[-170.5159501,65.7582501]},"properties":{"created_by":"JOSM"}},
{"type":"Feature","geometry":{"type":"Point","coordinates":[-170.5029799,65.72062]},"properties":{"created_by":"JOSM"}},
{"type":"Feature","geometry":{"type":"Point","coordinates":[-170.50378,65.6955699]},"properties":{"created_by":"JOSM"}},
{"type":"Feature","geometry":{"type":"Point","coordinates":[-170.5065399,65.7021399]},"properties":{"created_by":"JOSM"}},
{"type":"Feature","geometry":{"type":"Point","coordinates":[-170.50588,65.7152599]},"properties":{"created_by":"JOSM"}},
{"type":"Feature","geometry":{"type":"Point","coordinates":[-170.50401,65.7160299]},"properties":{"created_by":"JOSM"}},
{"type":"Feature","geometry":{"type":"Point","coordinates":[-170.5025399,65.71687]},"properties":{"created_by":"JOSM"}},
{"type":"Feature","geometry":{"type":"Point","coordinates":[-172.1789843,65.2599305]},"properties":{"name":"Chaluskin","natural":"cape"}},
{"type":"Feature","geometry":{"type":"Point","coordinates":[-172.2318399,64.4034788]},"properties":{"loc_name":"Ангазик","name":"Мыс Чаплина","name:ru":"Мыс Чаплина","natural":"cape","wikidata":"Q3313853","wikipedia":"ru:Мыс Чаплина"}},
{"type":"Feature","geometry":{"type":"Point","coordinates":[156.6645194,50.8651959]},"properties":{"name":"Лопатка","name:en":"Cape Lopatka","natural":"cape","wikidata":"Q1199044"}},
{"type":"Feature","geometry":{"type":"Point","coordinates":[158.4059414,52.9997771]},"properties":{"created_by":"JOSM"}},
{"type":"Feature","geometry":{"type":"Point","coordinates":[158.413495,52.9908476]},"properties":{"created_by":"JOSM"}},
{"type":"Feature","geometry":{"type":"Point","coordinates":[158.4143371,52.9913641]},"properties":{"created_by":"JOSM"}},
{"type":"Feature","geometry":{"type":"Point","coordinates":[158.4147376,52.9931594]},"properties":{"created_by":"JOSM"}},
{"type":"Feature","geometry":{"type":"Point","coordinates":[158.4138295,52.9975104]},"properties":{"created_by":"JOSM"}},
{"type":"Feature","geometry":{"type":"Point","coordinates":[158.4070107,52.9992702]},"properties":{"created_by":"JOSM"}},
{"type":"Feature","geometry":{"type":"Point","coordinates":[158.4154951,52.9999521]},"properties":{"created_by":"JOSM"}},
{"type":"Feature","geometry":{"type":"Point","coordinates":[158.4096915,52.9895476]},"properties":{"created_by":"JOSM"}},
{"type":"Feature","geometry":{"type":"Point","coordinates":[158.4681965,52.9620252]},"properties":{"created_by":"JOSM"}},
{"type":"Feature","geometry":{"type":"Point","coordinates":[158.4584603,52.960188]},"properties":{"created_by":"JOSM"}},
{"type":"Feature","geometry":{"type":"Point","coordinates":[158.4495915,52.9569451]},"properties":{"created_by":"JOSM"}},
{"type":"Feature","geometry":{"type":"Point","coordinates":[158.5275198,52.8914358]},"properties":{"created_by":"JOSM"}},
{"type":"Feature","geometry":{"type":"Point","coordinates":[158.5232754,52.8921875]},"properties":{"created_by":"JOSM"}},
{"type":"Feature","geometry":{"type":"Point","coordinates":[158.5228519,52.8921858]},"properties":{"created_by":"JOSM"}},
{"type":"Feature","geometry":{"type":"Point","coordinates":[158.517777,52.8913967]},"properties":{"created_by":"JOSM"}},
{"type":"Feature","geometry":{"type":"Point","coordinates":[158.5478766,52.8892092]},"properties":{"created_by":"JOSM"}},
{"type":"Feature","geometry":{"type":"Point","coordinates":[158.4021655,52.9964276]},"properties":{"created_by":"JOSM"}},
{"type":"Feature","geometry":{"type":"Point","coordinates":[158.4008456,52.9997515]},"properties":{"created_by":"JOSM"}},
{"type":"Feature","geometry":{"type":"Point","coordinates":[158.4423348,52.8943973]},"properties":{"created_by":"JOSM"}},
{"type":"Feature","geometry":{"type":"Point","coordinates":[158.4469752,52.8959561]},"properties":{"created_by":"JOSM"}},
{"type":"Feature","geometry":{"type":"Point","coordinates":[158.4622262,52.8960261]},"properties":{"created_by":"JOSM"}},
{"type":"Feature","geometry":{"type":"Point","coordinates":[158.4639016,52.897571]},"properties":{"created_by":"JOSM"}},
{"type":"Feature","geometry":{"type":"Point","coordinates":[158.4698532,52.8959319]},"properties":{"created_by":"JOSM"}},
{"type":"Feature","geometry":{"type":"Point","coordinates":[158.4766298,52.8960905]},"properties":{"created_by":"JOSM"}},
{"type":"Feature","geometry":{"type":"Point","coordinates":[158.4821326,52.8964984]},"properties":{"created_by":"JOSM"}},
{"type":"Feature","geometry":{"type":"Point","coordinates":[158.5152441,52.8906178]},"properties":{"created_by":"JOSM"}},
{"type":"Feature","geometry":{"type":"Point","coordinates":[158.5982264,52.8266196]},"properties":{"created_by":"JOSM"}},
{"type":"Feature","geometry":{"type":"Point","coordinates":[158.6102761,52.8272998]},"properties":{"created_by":"JOSM"}},
{"type":"Feature","geometry":{"type":"Point","coordinates":[158.6418742,52.8426442]},"properties":{"created_by":"JOSM"}},
{"type":"Feature","geometry":{"type":"Point","coordinates":[158.6376569,52.8409656]},"properties":{"created_by":"JOSM"}},
{"type":"Feature","geometry":{"type":"Point","coordinates":[158.632164,52.8400524]},"properties":{"created_by":"JOSM"}},
{"type":"Feature","geometry":{"type":"Point","coordinates":[158.6294239,52.8387629]},"properties":{"created_by":"JOSM"}},
{"type":"Feature","geometry":{"type":"Point","coordinates":[158.6462045,52.8445905]},"properties":{"name":"мыс Безымянный","natural":"cape","seamark:light:character":"Fl","seamark:light:colour":"white","seamark:light:height":"76","seamark:light:period":"12","seamark:light:range":"22","seamark:light:reference":"M 8072","seamark:name":"Mys Bezymyannyy","seamark:type":"light_major","source":"bing 2011-09"}},
{"type":"Feature","geometry":{"type":"Point","coordinates":[158.6431373,52.8434166]},"properties":{"created_by":"JOSM"}},
{"type":"Feature","geometry":{"type":"Point","coordinates":[158.5486717,52.8126062]},"properties":{"created_by":"JOSM"}},
{"type":"Feature","geometry":{"type":"Point","coordinates":[158.5605602,52.8077829]},"properties":{"created_by":"JOSM"}},
{"type":"Feature","geometry":{"type":"Point","coordinates":[158.6444048,52.8954302]},"properties":{"created_by":"JOSM"}},
{"type":"Feature","geometry":{"type":"Point","coordinates":[158.6414267,52.8969584]},"properties":{"created_by":"JOSM"}},
{"type":"Feature","geometry":{"type":"Point","coordinates":[158.5249681,52.8148196]},"properties":{"created_by":"JOSM"}},
{"type":"Feature","geometry":{"type":"Point","coordinates":[158.5228341,52.8166045]},"properties":{"created_by":"JOSM"}},
{"type":"Feature","geometry":{"type":"Point","coordinates":[158.5296251,52.8143257]},"properties":{"created_by":"JOSM"}},
{"type":"Feature","geometry":{"type":"Point","coordinates":[158.5262367,52.8148247]},"properties":{"created_by":"JOSM"}},
{"type":"Feature","geometry":{"type":"Point","coordinates":[158.5325684,52.8158746]},"properties":{"created_by":"JOSM"}},
{"type":"Feature","geometry":{"type":"Point","coordinates":[158.5304597,52.8153539]},"properties":{"created_by":"JOSM"}},
{"type":"Feature","geometry":{"type":"Point","coordinates":[158.5372172,52.816149]},"properties":{"created_by":"JOSM"}},
{"type":"Feature","geometry":{"type":"Point","coordinates":[158.5422996,52.8154002]},"properties":{"created_by":"JOSM"}},
{"type":"Feature","geometry":{"type":"Point","coordinates":[158.5439938,52.8151505]},"properties":{"created_by":"JOSM"}},
{"type":"Feature","geometry":{"type":"Point","coordinates":[158.5431467,52.8152749]},"properties":{"created_by":"JOSM"}},
{"type":"Feature","geometry":{"type":"Point","coordinates":[158.6255586,52.8946037]},"properties":{"created_by":"JOSM"}},
{"type":"Feature","geometry":{"type":"Point","coordinates":[158.6274581,52.8955059]},"properties":{"created_by":"JOSM"}},
{"type":"Feature","geometry":{"type":"Point","coordinates":[158.57089,52.8106391]},"properties":{"created_by":"JOSM"}},
{"type":"Feature","geometry":{"type":"Point","coordinates":[158.5687683,52.8114]},"properties":{"created_by":"JOSM"}},
{"type":"Feature","geometry":{"type":"Point","coordinates":[158.5410448,52.8340985]},"properties":{"created_by":"JOSM"}},
{"type":"Feature","geometry":{"type":"Point","coordinates":[158.5405353,52.822311]},"properties":{"created_by":"JOSM"}},
{"type":"Feature","geometry":{"type":"Point","coordinates":[158.5420282,52.8210358]},"properties":{"created_by":"JOSM"}},
{"type":"Feature","geometry":{"type":"Point","coordinates":[158.5433051,52.820272]},"properties":{"created_by":"JOSM"}},
{"type":"Feature","geometry":{"type":"Point","coordinates":[158.5370853,52.8285742]},"properties":{"created_by":"JOSM"}},
{"type":"Feature","geometry":{"type":"Point","coordinates":[158.5392557,52.8233308]},"properties":{"created_by":"JOSM"}},
{"type":"Feature","geometry":{"type":"Point","coordinates":[158.5269265,52.8291751]},"properties":{"created_by":"JOSM"}},
{"type":"Feature","geometry":{"type":"Point","coordinates":[158.531585,52.8286812]},"properties":{"created_by":"JOSM"}},
{"type":"Feature","geometry":{"type":"Point","coordinates":[158.5315795,52.8291936]},"properties":{"created_by":"JOSM"}},
{"type":"Feature","geometry":{"type":"Point","coordinates":[158.5337012,52.828561]},"properties":{"created_by":"JOSM"}},
{"type":"Feature","geometry":{"type":"Point","coordinates":[158.5256185,52.8327568]},"properties":{"created_by":"JOSM"}},
{"type":"Feature","geometry":{"type":"Point","coordinates":[158.5254313,52.8304503]},"properties":{"created_by":"JOSM"}},
{"type":"Feature","geometry":{"type":"Point","coordinates":[158.5260751,52.8296842]},"properties":{"created_by":"JOSM"}},
{"type":"Feature","geometry":{"type":"Point","coordinates":[158.526921,52.8296876]},"properties":{"created_by":"JOSM"}},
{"type":"Feature","geometry":{"type":"Point","coordinates":[158.5615003,52.8193157]},"properties":{"created_by":"JOSM"}},
{"type":"Feature","geometry":{"type":"Point","coordinates":[158.5642667,52.8176602]},"properties":{"created_by":"JOSM"}},
{"type":"Feature","geometry":{"type":"Point","coordinates":[158.5655366,52.8175372]},"properties":{"created_by":"JOSM"}},
{"type":"Feature","geometry":{"type":"Point","coordinates":[158.5657855,52.813695]},"properties":{"created_by":"JOSM"}},
{"type":"Feature","geometry":{"type":"Point","coordinates":[158.5666439,52.812417]},"properties":{"created_by":"JOSM"}},
{"type":"Feature","geometry":{"type":"Point","coordinates":[158.5689752,52.8119131]},"properties":{"created_by":"JOSM"}},
{"type":"Feature","geometry":{"type":"Point","coordinates":[158.5513888,52.8361877]},"properties":{"created_by":"JOSM"}},
{"type":"Feature","geometry":{"type":"Point","coordinates":[158.5522416,52.83555]},"properties":{"created_by":"JOSM"}},
{"type":"Feature","geometry":{"type":"Point","coordinates":[158.5411699,52.8022006]},"properties":{"created_by":"JOSM"}},
{"type":"Feature","geometry":{"type":"Point","coordinates":[158.544984,52.8013189]},"properties":{"created_by":"JOSM"}},
{"type":"Feature","geometry":{"type":"Point","coordinates":[158.5450267,52.7972197]},"properties":{"created_by":"JOSM"}},
{"type":"Feature","geometry":{"type":"Point","coordinates":[158.5277094,52.7959988]},"properties":{"created_by":"JOSM"}},
{"type":"Feature","geometry":{"type":"Point","coordinates":[158.5509377,52.7978823]},"properties":{"created_by":"JOSM"}},
{"type":"Feature","geometry":{"type":"Point","coordinates":[158.5524387,52.7957107]},"properties":{"created_by":"JOSM"}},
{"type":"Feature","geometry":{"type":"Point","coordinates":[159.9196154,53.9887643]},"properties":{"created_by":"JOSM"}},
{"type":"Feature","geometry":{"type":"Point","coordinates":[159.9100007,53.9864043]},"properties":{"created_by":"JOSM"}},
{"type":"Feature","geometry":{"type":"Point","coordinates":[159.9091121,53.9855141]},"properties":{"created_by":"JOSM"}},
{"type":"Feature","geometry":{"type":"Point","coordinates":[159.9138588,53.9839411]},"properties":{"created_by":"JOSM"}},
{"type":"Feature","geometry":{"type":"Point","coordinates":[159.9009473,53.9798122]},"properties":{"created_by":"JOSM"}},
{"type":"Feature","geometry":{"type":"Point","coordinates":[159.8994133,53.9791828]},"properties":{"created_by":"JOSM"}},
{"type":"Feature","geometry":{"type":"Point","coordinates":[159.9020703,53.9814684]},"properties":{"created_by":"JOSM"}},
{"type":"Feature","geometry":{"type":"Point","coordinates":[159.9009694,53.9808367]},"properties":{"created_by":"JOSM"}},
{"type":"Feature","geometry":{"type":"Point","coordinates":[159.9064906,53.9848938]},"properties":{"created_by":"JOSM"}},
{"type":"Feature","geometry":{"type":"Point","coordinates":[159.910652,53.9764088]},"properties":{"created_by":"JOSM"}},
{"type":"Feature","geometry":{"type":"Point","coordinates":[159.8940484,53.9721788]},"properties":{"created_by":"JOSM"}},
{"type":"Feature","geometry":{"type":"Point","coordinates":[159.8948624,53.9696111]},"properties":{"created_by":"JOSM"}},
{"type":"Feature","geometry":{"type":"Point","coordinates":[159.8939936,53.9696175]},"properties":{"created_by":"JOSM"}},
{"type":"Feature","geometry":{"type":"Point","coordinates":[159.8964956,53.9647317]},"properties":{"created_by":"JOSM"}},
{"type":"Feature","geometry":{"type":"Point","coordinates":[159.8973699,53.9649813]},"properties":{"created_by":"JOSM"}},
{"type":"Feature","geometry":{"type":"Point","coordinates":[159.8988618,53.9636893]},"properties":{"created_by":"JOSM"}},
{"type":"Feature","geometry":{"type":"Point","coordinates":[159.900322,53.9608606]},"properties":{"created_by":"JOSM"}},
{"type":"Feature","geometry":{"type":"Point","coordinates":[159.9001484,53.9629112]},"properties":{"created_by":"JOSM"}},
{"type":"Feature","geometry":{"type":"Point","coordinates":[159.8919911,53.9775735]},"properties":{"created_by":"JOSM"}},
{"type":"Feature","geometry":{"type":"Point","coordinates":[159.8919802,53.9770613]},"properties":{"created_by":"JOSM"}},
{"type":"Feature","geometry":{"type":"Point","coordinates":[159.8919692,53.9765491]},"properties":{"created_by":"JOSM"}},
{"type":"Feature","geometry":{"type":"Point","coordinates":[159.8927505,53.9724446]},"properties":{"created_by":"JOSM"}},
{"type":"Feature","geometry":{"type":"Point","coordinates":[159.902975,53.9630176]},"properties":{"created_by":"JOSM"}},
{"type":"Feature","geometry":{"type":"Point","coordinates":[159.9008172,53.9636748]},"properties":{"created_by":"JOSM"}},
{"type":"Feature","geometry":{"type":"Point","coordinates":[159.9132814,53.9774136]},"properties":{"created_by":"JOSM"}},
{"type":"Feature","geometry":{"type":"Point","coordinates":[159.9137327,53.9781786]},"properties":{"created_by":"JOSM"}},
{"type":"Feature","geometry":{"type":"Point","coordinates":[159.0254033,53.8463976]},"properties":{"created_by":"JOSM"}},
{"type":"Feature","geometry":{"type":"Point","coordinates":[159.024971,53.8479346]},"properties":{"created_by":"JOSM"}},
{"type":"Feature","geometry":{"type":"Point","coordinates":[159.0236705,53.8461417]},"properties":{"created_by":"JOSM"}},
{"type":"Feature","geometry":{"type":"Point","coordinates":[159.0249699,53.8458853]},"properties":{"created_by":"JOSM"}},
{"type":"Feature","geometry":{"type":"Point","coordinates":[159.0327913,53.8766229]},"properties":{"created_by":"JOSM"}},
{"type":"Feature","geometry":{"type":"Point","coordinates":[159.0228036,53.8451174]},"properties":{"created_by":"JOSM"}},
{"type":"Feature","geometry":{"type":"Point","coordinates":[159.0020094,53.8154045]},"properties":{"created_by":"JOSM"}},
{"type":"Feature","geometry":{"type":"Point","coordinates":[159.0024422,53.8120743]},"properties":{"created_by":"JOSM"}},
{"type":"Feature","geometry":{"type":"Point","coordinates":[159.0057552,53.8060134]},"properties":{"created_by":"JOSM"}},
{"type":"Feature","geometry":{"type":"Point","coordinates":[159.0050385,53.8060541]},"properties":{"created_by":"JOSM"}},
{"type":"Feature","geometry":{"type":"Point","coordinates":[159.0035231,53.8077195]},"properties":{"created_by":"JOSM"}},
{"type":"Feature","geometry":{"type":"Point","coordinates":[159.0033076,53.8107936]},"properties":{"created_by":"JOSM"}},
{"type":"Feature","geometry":{"type":"Point","coordinates":[159.0041733,53.8102813]},"properties":{"created_by":"JOSM"}},
{"type":"Feature","geometry":{"type":"Point","coordinates":[159.0020344,53.8158849]},"properties":{"created_by":"JOSM"}},
{"type":"Feature","geometry":{"type":"Point","coordinates":[159.0027067,53.8161726]},"properties":{"created_by":"JOSM"}},
{"type":"Feature","geometry":{"type":"Point","coordinates":[159.0030907,53.8128428]},"properties":{"created_by":"JOSM"}},
{"type":"Feature","geometry":{"type":"Point","coordinates":[159.0043887,53.8072072]},"properties":{"created_by":"JOSM"}},
{"type":"Feature","geometry":{"type":"Point","coordinates":[159.0041733,53.8097689]},"properties":{"created_by":"JOSM"}},
{"type":"Feature","geometry":{"type":"Point","coordinates":[159.0077822,53.8053259]},"properties":{"created_by":"JOSM"}},
{"type":"Feature","geometry":{"type":"Point","coordinates":[159.0089332,53.8049016]},"properties":{"created_by":"JOSM"}},
{"type":"Feature","geometry":{"type":"Point","coordinates":[159.0106635,53.8020836]},"properties":{"created_by":"JOSM"}},
{"type":"Feature","geometry":{"type":"Point","coordinates":[159.0119616,53.801571]},"properties":{"created_by":"JOSM"}},
{"type":"Feature","geometry":{"type":"Point","coordinates":[159.0136922,53.8008023]},"properties":{"created_by":"JOSM"}},
{"type":"Feature","geometry":{"type":"Point","coordinates":[159.0197703,53.8430686]},"properties":{"created_by":"JOSM"}},
{"type":"Feature","geometry":{"type":"Point","coordinates":[159.0171698,53.8394827]},"properties":{"created_by":"JOSM"}},
{"type":"Feature","geometry":{"type":"Point","coordinates":[159.0160859,53.8387142]},"properties":{"created_by":"JOSM"}},
{"type":"Feature","geometry":{"type":"Point","coordinates":[159.0024424,53.8171977]},"properties":{"created_by":"JOSM"}},
{"type":"Feature","geometry":{"type":"Point","coordinates":[159.0017922,53.8169414]},"properties":{"created_by":"JOSM"}},
{"type":"Feature","geometry":{"type":"Point","coordinates":[159.0028754,53.8171977]},"properties":{"created_by":"JOSM"}},
{"type":"Feature","geometry":{"type":"Point","coordinates":[159.0056879,53.8143797]},"properties":{"created_by":"JOSM"}},
{"type":"Feature","geometry":{"type":"Point","coordinates":[159.0284507,53.868683]},"properties":{"created_by":"JOSM"}},
{"type":"Feature","geometry":{"type":"Point","coordinates":[159.0304015,53.8702194]},"properties":{"created_by":"JOSM"}},
{"type":"Feature","geometry":{"type":"Point","coordinates":[159.0306204,53.8720124]},"properties":{"created_by":"JOSM"}},
{"type":"Feature","geometry":{"type":"Point","coordinates":[159.0230211,53.8484473]},"properties":{"created_by":"JOSM"}},
{"type":"Feature","geometry":{"type":"Point","coordinates":[159.0204265,53.8579259]},"properties":{"created_by":"JOSM"}},
{"type":"Feature","geometry":{"type":"Point","coordinates":[159.0217289,53.8627926]},"properties":{"created_by":"JOSM"}},
{"type":"Feature","geometry":{"type":"Point","coordinates":[159.0215049,53.8471669]},"properties":{"created_by":"JOSM"}},
{"type":"Feature","geometry":{"type":"Point","coordinates":[159.0219385,53.8476791]},"properties":{"created_by":"JOSM"}},
{"type":"Feature","geometry":{"type":"Point","coordinates":[159.0197703,53.8433247]},"properties":{"created_by":"JOSM"}},
{"type":"Feature","geometry":{"type":"Point","coordinates":[159.02172,53.8456297]},"properties":{"created_by":"JOSM"}},
{"type":"Feature","geometry":{"type":"Point","coordinates":[159.0315221,53.9183773]},"properties":{"created_by":"JOSM"}},
{"type":"Feature","geometry":{"type":"Point","coordinates":[159.0306561,53.9209391]},"properties":{"created_by":"JOSM"}},
{"type":"Feature","geometry":{"type":"Point","coordinates":[159.0404047,53.9055665]},"properties":{"created_by":"JOSM"}},
{"type":"Feature","geometry":{"type":"Point","coordinates":[159.0332549,53.9145344]},"properties":{"created_by":"JOSM"}},
{"type":"Feature","geometry":{"type":"Point","coordinates":[159.0412692,53.9024925]},"properties":{"created_by":"JOSM"}},
{"type":"Feature","geometry":{"type":"Point","coordinates":[159.042355,53.9030043]},"properties":{"created_by":"JOSM"}},
{"type":"Feature","geometry":{"type":"Point","coordinates":[159.0432207,53.9012109]},"properties":{"created_by":"JOSM"}},
{"type":"Feature","geometry":{"type":"Point","coordinates":[159.0293515,53.9170971]},"properties":{"created_by":"JOSM"}},
{"type":"Feature","geometry":{"type":"Point","coordinates":[159.0293518,53.9176092]},"properties":{"created_by":"JOSM"}},
{"type":"Feature","geometry":{"type":"Point","coordinates":[159.0313021,53.9153034]},"properties":{"created_by":"JOSM"}},
{"type":"Feature","geometry":{"type":"Point","coordinates":[159.0304354,53.9168406]},"properties":{"created_by":"JOSM"}},
{"type":"Feature","geometry":{"type":"Point","coordinates":[159.0440867,53.8996737]},"properties":{"created_by":"JOSM"}},
{"type":"Feature","geometry":{"type":"Point","coordinates":[159.0440882,53.9012107]},"properties":{"created_by":"JOSM"}},
{"type":"Feature","geometry":{"type":"Point","coordinates":[159.0440876,53.9006983]},"properties":{"created_by":"JOSM"}},
{"type":"Feature","geometry":{"type":"Point","coordinates":[159.0438714,53.9019791]},"properties":{"created_by":"JOSM"}},
{"type":"Feature","geometry":{"type":"Point","coordinates":[159.0332252,53.8771351]},"properties":{"created_by":"JOSM"}},
{"type":"Feature","geometry":{"type":"Point","coordinates":[159.0323571,53.8758544]},"properties":{"created_by":"JOSM"}},
{"type":"Feature","geometry":{"type":"Point","coordinates":[159.033659,53.8776473]},"properties":{"created_by":"JOSM"}},
{"type":"Feature","geometry":{"type":"Point","coordinates":[159.0820044,53.77106]},"properties":{"created_by":"JOSM"}},
{"type":"Feature","geometry":{"type":"Point","coordinates":[159.0802771,53.772342]},"properties":{"created_by":"JOSM"}},
{"type":"Feature","geometry":{"type":"Point","coordinates":[159.0794119,53.7720864]},"properties":{"created_by":"JOSM"}},
{"type":"Feature","geometry":{"type":"Point","coordinates":[159.081854,53.7701227]},"properties":{"created_by":"JOSM"}},
{"type":"Feature","geometry":{"type":"Point","coordinates":[159.0763877,53.7736255]},"properties":{"created_by":"JOSM"}},
{"type":"Feature","geometry":{"type":"Point","coordinates":[159.0729369,53.7787508]},"properties":{"created_by":"JOSM"}},
{"type":"Feature","geometry":{"type":"Point","coordinates":[159.0729366,53.7784947]},"properties":{"created_by":"JOSM"}},
{"type":"Feature","geometry":{"type":"Point","coordinates":[159.7970041,53.7820161]},"properties":{"created_by":"JOSM"}},
{"type":"Feature","geometry":{"type":"Point","coordinates":[159.7930901,53.7808889]},"properties":{"created_by":"JOSM"}},
{"type":"Feature","geometry":{"type":"Point","coordinates":[159.8021719,53.7808284]},"properties":{"created_by":"JOSM"}},
{"type":"Feature","geometry":{"type":"Point","coordinates":[159.8047619,53.780555]},"properties":{"created_by":"JOSM"}},
{"type":"Feature","geometry":{"type":"Point","coordinates":[159.7969895,53.7812476]},"properties":{"created_by":"JOSM"}},
{"type":"Feature","geometry":{"type":"Point","coordinates":[159.7939186,53.7789624]},"properties":{"created_by":"JOSM"}},
{"type":"Feature","geometry":{"type":"Point","coordinates":[159.7939283,53.7794748]},"properties":{"created_by":"JOSM"}},
{"type":"Feature","geometry":{"type":"Point","coordinates":[159.8047105,53.7778659]},"properties":{"created_by":"JOSM"}},
{"type":"Feature","geometry":{"type":"Point","coordinates":[159.789181,53.7800186]},"properties":{"created_by":"JOSM"}},
{"type":"Feature","geometry":{"type":"Point","coordinates":[159.7913601,53.7809003]},"properties":{"created_by":"JOSM"}},
{"type":"Feature","geometry":{"type":"Point","coordinates":[159.7922057,53.77987]},"properties":{"created_by":"JOSM"}},
{"type":"Feature","geometry":{"type":"Point","coordinates":[159.7893201,53.7795924]},"properties":{"created_by":"JOSM"}},
{"type":"Feature","geometry":{"type":"Point","coordinates":[159.8089931,53.7756591]},"properties":{"created_by":"JOSM"}},
{"type":"Feature","geometry":{"type":"Point","coordinates":[159.8115924,53.7758978]},"properties":{"created_by":"JOSM"}},
{"type":"Feature","geometry":{"type":"Point","coordinates":[159.8128997,53.7764013]},"properties":{"created_by":"JOSM"}},
{"type":"Feature","geometry":{"type":"Point","coordinates":[159.8133148,53.7755022]},"properties":{"created_by":"JOSM"}},
{"type":"Feature","geometry":{"type":"Point","coordinates":[159.8055656,53.7773478]},"properties":{"created_by":"JOSM"}},
{"type":"Feature","geometry":{"type":"Point","coordinates":[159.8074862,53.7760541]},"properties":{"created_by":"JOSM"}},
{"type":"Feature","geometry":{"type":"Point","coordinates":[159.8078349,53.7716967]},"properties":{"created_by":"JOSM"}},
{"type":"Feature","geometry":{"type":"Point","coordinates":[159.8078103,53.770416]},"properties":{"created_by":"JOSM"}},
{"type":"Feature","geometry":{"type":"Point","coordinates":[159.8098859,53.7694644]},"properties":{"created_by":"JOSM"}},
{"type":"Feature","geometry":{"type":"Point","coordinates":[159.8153652,53.7697239]},"properties":{"created_by":"JOSM"}},
{"type":"Feature","geometry":{"type":"Point","coordinates":[159.8124499,53.7755081]},"properties":{"created_by":"JOSM"}},
{"type":"Feature","geometry":{"type":"Point","coordinates":[159.8124401,53.7749959]},"properties":{"created_by":"JOSM"}},
{"type":"Feature","geometry":{"type":"Point","coordinates":[159.808961,53.7739948]},"properties":{"created_by":"JOSM"}},
{"type":"Feature","geometry":{"type":"Point","coordinates":[159.8091519,53.7727126]},"properties":{"created_by":"JOSM"}},
{"type":"Feature","geometry":{"type":"Point","coordinates":[159.82309,53.7667256]},"properties":{"created_by":"JOSM"}},
{"type":"Feature","geometry":{"type":"Point","coordinates":[159.8220135,53.7669893]},"properties":{"created_by":"JOSM"}},
{"type":"Feature","geometry":{"type":"Point","coordinates":[159.8213856,53.7680182]},"properties":{"created_by":"JOSM"}},
{"type":"Feature","geometry":{"type":"Point","coordinates":[159.8192165,53.7676483]},"properties":{"created_by":"JOSM"}},
{"type":"Feature","geometry":{"type":"Point","coordinates":[159.8168553,53.7685616]},"properties":{"created_by":"JOSM"}},
{"type":"Feature","geometry":{"type":"Point","coordinates":[159.8170872,53.7693285]},"properties":{"created_by":"JOSM"}},
{"type":"Feature","geometry":{"type":"Point","coordinates":[159.8201086,53.7690517]},"properties":{"created_by":"JOSM"}},
{"type":"Feature","geometry":{"type":"Point","coordinates":[159.6389218,53.7684886]},"properties":{"created_by":"JOSM"}},
{"type":"Feature","geometry":{"type":"Point","coordinates":[159.6410738,53.7678371]},"properties":{"created_by":"JOSM"}},
{"type":"Feature","geometry":{"type":"Point","coordinates":[159.64107,53.767581]},"properties":{"created_by":"JOSM"}},
{"type":"Feature","geometry":{"type":"Point","coordinates":[159.82308,53.7662134]},"properties":{"created_by":"JOSM"}},
{"type":"Feature","geometry":{"type":"Point","coordinates":[159.6358895,53.768121]},"properties":{"created_by":"JOSM"}},
{"type":"Feature","geometry":{"type":"Point","coordinates":[159.6345614,53.7660787]},"properties":{"created_by":"JOSM"}},
{"type":"Feature","geometry":{"type":"Point","coordinates":[159.0249693,53.8449883]},"properties":{"created_by":"JOSM"}},
{"type":"Feature","geometry":{"type":"Point","coordinates":[159.0262692,53.845629]},"properties":{"created_by":"JOSM"}},
{"type":"Feature","geometry":{"type":"Point","coordinates":[159.0158691,53.8358966]},"properties":{"created_by":"JOSM"}},
{"type":"Feature","geometry":{"type":"Point","coordinates":[159.0169515,53.8371773]},"properties":{"created_by":"JOSM"}},
{"type":"Feature","geometry":{"type":"Point","coordinates":[159.0176023,53.8379456]},"properties":{"created_by":"JOSM"}},
{"type":"Feature","geometry":{"type":"Point","coordinates":[159.018902,53.8389701]},"properties":{"created_by":"JOSM"}},
{"type":"Feature","geometry":{"type":"Point","coordinates":[159.0210687,53.8410191]},"properties":{"created_by":"JOSM"}},
{"type":"Feature","geometry":{"type":"Point","coordinates":[159.0314849,53.8689383]},"properties":{"created_by":"JOSM"}},
{"type":"Feature","geometry":{"type":"Point","coordinates":[159.0356053,53.8730359]},"properties":{"created_by":"JOSM"}},
{"type":"Feature","geometry":{"type":"Point","coordinates":[159.0340872,53.8709869]},"properties":{"created_by":"JOSM"}},
{"type":"Feature","geometry":{"type":"Point","coordinates":[159.0379975,53.8812322]},"properties":{"created_by":"JOSM"}},
{"type":"Feature","geometry":{"type":"Point","coordinates":[159.0382127,53.8804636]},"properties":{"created_by":"JOSM"}},
{"type":"Feature","geometry":{"type":"Point","coordinates":[159.0388646,53.8812319]},"properties":{"created_by":"JOSM"}},
{"type":"Feature","geometry":{"type":"Point","coordinates":[159.0288829,53.8668898]},"properties":{"created_by":"JOSM"}},
{"type":"Feature","geometry":{"type":"Point","coordinates":[159.030184,53.867914]},"properties":{"created_by":"JOSM"}},
{"type":"Feature","geometry":{"type":"Point","coordinates":[159.0425667,53.8986495]},"properties":{"created_by":"JOSM"}},
{"type":"Feature","geometry":{"type":"Point","coordinates":[159.0436518,53.8986491]},"properties":{"created_by":"JOSM"}},
{"type":"Feature","geometry":{"type":"Point","coordinates":[159.0410394,53.8884036]},"properties":{"created_by":"JOSM"}},
{"type":"Feature","geometry":{"type":"Point","coordinates":[159.0443015,53.898649]},"properties":{"created_by":"JOSM"}},
{"type":"Feature","geometry":{"type":"Point","coordinates":[159.0323533,53.8709875]},"properties":{"created_by":"JOSM"}},
{"type":"Feature","geometry":{"type":"Point","coordinates":[159.0358275,53.8786713]},"properties":{"created_by":"JOSM"}},
{"type":"Feature","geometry":{"type":"Point","coordinates":[159.035394,53.8786715]},"properties":{"created_by":"JOSM"}},
{"type":"Feature","geometry":{"type":"Point","coordinates":[159.0323566,53.8750859]},"properties":{"created_by":"JOSM"}},
{"type":"Feature","geometry":{"type":"Point","coordinates":[159.0330056,53.8745736]},"properties":{"created_by":"JOSM"}},
{"type":"Feature","geometry":{"type":"Point","coordinates":[159.0314864,53.8709877]},"properties":{"created_by":"JOSM"}},
{"type":"Feature","geometry":{"type":"Point","coordinates":[159.0346741,53.8782464]},"properties":{"created_by":"JOSM"}},
{"type":"Feature","geometry":{"type":"Point","coordinates":[159.0358296,53.8812328]},"properties":{"created_by":"JOSM"}},
{"type":"Feature","geometry":{"type":"Point","coordinates":[159.026675,53.8024648]},"properties":{"created_by":"JOSM"}},
{"type":"Feature","geometry":{"type":"Point","coordinates":[159.0301362,53.801568]},"properties":{"created_by":"JOSM"}},
{"type":"Feature","geometry":{"type":"Point","coordinates":[159.0137028,53.833079]},"properties":{"created_by":"JOSM"}},
{"type":"Feature","geometry":{"type":"Point","coordinates":[159.009803,53.8236014]},"properties":{"created_by":"JOSM"}},
{"type":"Feature","geometry":{"type":"Point","coordinates":[159.0087198,53.8230892]},"properties":{"created_by":"JOSM"}},
{"type":"Feature","geometry":{"type":"Point","coordinates":[159.0108807,53.8079753]},"properties":{"created_by":"JOSM"}},
{"type":"Feature","geometry":{"type":"Point","coordinates":[159.104907,53.7648942]},"properties":{"created_by":"JOSM"}},
{"type":"Feature","geometry":{"type":"Point","coordinates":[159.1014499,53.7655372]},"properties":{"created_by":"JOSM"}},
{"type":"Feature","geometry":{"type":"Point","coordinates":[159.117441,53.7633456]},"properties":{"created_by":"JOSM"}},
{"type":"Feature","geometry":{"type":"Point","coordinates":[159.0962607,53.7651577]},"properties":{"created_by":"JOSM"}},
{"type":"Feature","geometry":{"type":"Point","coordinates":[159.0997201,53.765411]},"properties":{"created_by":"JOSM"}},
{"type":"Feature","geometry":{"type":"Point","coordinates":[159.0811465,53.774647]},"properties":{"created_by":"JOSM"}},
{"type":"Feature","geometry":{"type":"Point","coordinates":[159.0841696,53.7725956]},"properties":{"created_by":"JOSM"}},
{"type":"Feature","geometry":{"type":"Point","coordinates":[159.136,53.7535916]},"properties":{"created_by":"JOSM"}},
{"type":"Feature","geometry":{"type":"Point","coordinates":[159.1264971,53.7556514]},"properties":{"created_by":"JOSM"}},
{"type":"Feature","geometry":{"type":"Point","coordinates":[159.1299535,53.7551354]},"properties":{"created_by":"JOSM"}},
{"type":"Feature","geometry":{"type":"Point","coordinates":[159.1347046,53.7539768]},"properties":{"created_by":"JOSM"}},
{"type":"Feature","geometry":{"type":"Point","coordinates":[159.1230486,53.7589851]},"properties":{"created_by":"JOSM"}},
{"type":"Feature","geometry":{"type":"Point","coordinates":[159.1247702,53.7564217]},"properties":{"created_by":"JOSM"}},
{"type":"Feature","geometry":{"type":"Point","coordinates":[159.1217547,53.760011]},"properties":{"created_by":"JOSM"}},
{"type":"Feature","geometry":{"type":"Point","coordinates":[159.1226179,53.7594979]},"properties":{"created_by":"JOSM"}},
{"type":"Feature","geometry":{"type":"Point","coordinates":[159.0539252,53.79285]},"properties":{"created_by":"JOSM"}},
{"type":"Feature","geometry":{"type":"Point","coordinates":[159.05306,53.7928503]},"properties":{"created_by":"JOSM"}},
{"type":"Feature","geometry":{"type":"Point","coordinates":[159.0413807,53.7949042]},"properties":{"created_by":"JOSM"}},
{"type":"Feature","geometry":{"type":"Point","coordinates":[159.039651,53.7959295]},"properties":{"created_by":"JOSM"}},
{"type":"Feature","geometry":{"type":"Point","coordinates":[159.078124,53.7772106]},"properties":{"created_by":"JOSM"}},
{"type":"Feature","geometry":{"type":"Point","coordinates":[159.0763964,53.7784926]},"properties":{"created_by":"JOSM"}},
{"type":"Feature","geometry":{"type":"Point","coordinates":[159.0755325,53.7790053]},"properties":{"created_by":"JOSM"}},
{"type":"Feature","geometry":{"type":"Point","coordinates":[159.0599738,53.7869552]},"properties":{"created_by":"JOSM"}},
{"type":"Feature","geometry":{"type":"Point","coordinates":[159.0593252,53.7877241]},"properties":{"created_by":"JOSM"}},
{"type":"Feature","geometry":{"type":"Point","coordinates":[159.0565204,53.7923365]},"properties":{"created_by":"JOSM"}},
{"type":"Feature","geometry":{"type":"Point","coordinates":[159.0584633,53.7900301]},"properties":{"created_by":"JOSM"}},
{"type":"Feature","geometry":{"type":"Point","coordinates":[159.0556557,53.7928492]},"properties":{"created_by":"JOSM"}},
{"type":"Feature","geometry":{"type":"Point","coordinates":[159.0830772,53.7672168]},"properties":{"created_by":"JOSM"}},
{"type":"Feature","geometry":{"type":"Point","coordinates":[159.0824314,53.768242]},"properties":{"created_by":"JOSM"}},
{"type":"Feature","geometry":{"type":"Point","coordinates":[159.0811443,53.7734937]},"properties":{"created_by":"JOSM"}},
{"type":"Feature","geometry":{"type":"Point","coordinates":[159.0822202,53.7713161]},"properties":{"created_by":"JOSM"}},
{"type":"Feature","geometry":{"type":"Point","coordinates":[159.1256305,53.7550114]},"properties":{"created_by":"JOSM"}},
{"type":"Feature","geometry":{"type":"Point","coordinates":[159.1204491,53.7569385]},"properties":{"created_by":"JOSM"}},
{"type":"Feature","geometry":{"type":"Point","coordinates":[159.0839388,53.7656791]},"properties":{"created_by":"JOSM"}},
{"type":"Feature","geometry":{"type":"Point","coordinates":[159.0750963,53.7769564]},"properties":{"created_by":"JOSM"}},
{"type":"Feature","geometry":{"type":"Point","coordinates":[159.0703422,53.77888]},"properties":{"created_by":"JOSM"}},
{"type":"Feature","geometry":{"type":"Point","coordinates":[159.0686124,53.7790095]},"properties":{"created_by":"JOSM"}},
{"type":"Feature","geometry":{"type":"Point","coordinates":[159.0651541,53.7800361]},"properties":{"created_by":"JOSM"}},
{"type":"Feature","geometry":{"type":"Point","coordinates":[159.0638578,53.7808054]},"properties":{"created_by":"JOSM"}},
{"type":"Feature","geometry":{"type":"Point","coordinates":[159.07574,53.7746504]},"properties":{"created_by":"JOSM"}},
{"type":"Feature","geometry":{"type":"Point","coordinates":[159.1712317,53.7548273]},"properties":{"created_by":"JOSM"}},
{"type":"Feature","geometry":{"type":"Point","coordinates":[159.170364,53.75406]},"properties":{"created_by":"JOSM"}},
{"type":"Feature","geometry":{"type":"Point","coordinates":[159.1723058,53.7530326]},"properties":{"created_by":"JOSM"}},
{"type":"Feature","geometry":{"type":"Point","coordinates":[159.1697269,53.7566226]},"properties":{"created_by":"JOSM"}},
{"type":"Feature","geometry":{"type":"Point","coordinates":[159.1662778,53.758933]},"properties":{"created_by":"JOSM"}},
{"type":"Feature","geometry":{"type":"Point","coordinates":[159.1645466,53.7584231]},"properties":{"created_by":"JOSM"}},
{"type":"Feature","geometry":{"type":"Point","coordinates":[159.1489697,53.7543448]},"properties":{"created_by":"JOSM"}},
{"type":"Feature","geometry":{"type":"Point","coordinates":[159.1411822,53.7521762]},"properties":{"created_by":"JOSM"}},
{"type":"Feature","geometry":{"type":"Point","coordinates":[159.137293,53.752437]},"properties":{"created_by":"JOSM"}},
{"type":"Feature","geometry":{"type":"Point","coordinates":[159.1671342,53.7568825]},"properties":{"created_by":"JOSM"}},
{"type":"Feature","geometry":{"type":"Point","coordinates":[159.1684284,53.7562397]},"properties":{"created_by":"JOSM"}},
{"type":"Feature","geometry":{"type":"Point","coordinates":[159.1651852,53.7561167]},"properties":{"created_by":"JOSM"}},
{"type":"Feature","geometry":{"type":"Point","coordinates":[159.1658414,53.757909]},"properties":{"created_by":"JOSM"}},
{"type":"Feature","geometry":{"type":"Point","coordinates":[159.6440611,53.7652594]},"properties":{"created_by":"JOSM"}},
{"type":"Feature","geometry":{"type":"Point","coordinates":[159.6436289,53.7652618]},"properties":{"created_by":"JOSM"}},
{"type":"Feature","geometry":{"type":"Point","coordinates":[159.6436326,53.7655179]},"properties":{"created_by":"JOSM"}},
{"type":"Feature","geometry":{"type":"Point","coordinates":[159.633253,53.765317]},"properties":{"created_by":"JOSM"}},
{"type":"Feature","geometry":{"type":"Point","coordinates":[159.629775,53.7640545]},"properties":{"created_by":"JOSM"}},
{"type":"Feature","geometry":{"type":"Point","coordinates":[159.6341329,53.7663371]},"properties":{"created_by":"JOSM"}},
{"type":"Feature","geometry":{"type":"Point","coordinates":[159.629335,53.7635444]},"properties":{"created_by":"JOSM"}},
{"type":"Feature","geometry":{"type":"Point","coordinates":[159.6293312,53.7632883]},"properties":{"created_by":"JOSM"}},
{"type":"Feature","geometry":{"type":"Point","coordinates":[159.6332452,53.7648046]},"properties":{"created_by":"JOSM"}},
{"type":"Feature","geometry":{"type":"Point","coordinates":[159.628459,53.7627804]},"properties":{"created_by":"JOSM"}},
{"type":"Feature","geometry":{"type":"Point","coordinates":[159.6288912,53.7627782]},"properties":{"created_by":"JOSM"}},
{"type":"Feature","geometry":{"type":"Point","coordinates":[159.8095068,53.7798831]},"properties":{"created_by":"JOSM"}},
{"type":"Feature","geometry":{"type":"Point","coordinates":[159.8090596,53.7791174]},"properties":{"created_by":"JOSM"}},
{"type":"Feature","geometry":{"type":"Point","coordinates":[159.8082193,53.7804039]},"properties":{"created_by":"JOSM"}},
{"type":"Feature","geometry":{"type":"Point","coordinates":[159.8124945,53.7778133]},"properties":{"created_by":"JOSM"}},
{"type":"Feature","geometry":{"type":"Point","coordinates":[159.8129071,53.7767859]},"properties":{"created_by":"JOSM"}},
{"type":"Feature","geometry":{"type":"Point","coordinates":[159.8099196,53.7788555]},"properties":{"created_by":"JOSM"}},
{"type":"Feature","geometry":{"type":"Point","coordinates":[159.8099097,53.7783433]},"properties":{"created_by":"JOSM"}},
{"type":"Feature","geometry":{"type":"Point","coordinates":[159.8090547,53.7788613]},"properties":{"created_by":"JOSM"}},
{"type":"Feature","geometry":{"type":"Point","coordinates":[159.8175618,53.7715022]},"properties":{"created_by":"JOSM"}},
{"type":"Feature","geometry":{"type":"Point","coordinates":[159.8136778,53.7719133]},"properties":{"created_by":"JOSM"}},
{"type":"Feature","geometry":{"type":"Point","coordinates":[159.8136877,53.7724257]},"properties":{"created_by":"JOSM"}},
{"type":"Feature","geometry":{"type":"Point","coordinates":[159.8106708,53.7729585]},"properties":{"created_by":"JOSM"}},
{"type":"Feature","geometry":{"type":"Point","coordinates":[159.810901,53.7737254]},"properties":{"created_by":"JOSM"}},
{"type":"Feature","geometry":{"type":"Point","coordinates":[159.8128625,53.7744807]},"properties":{"created_by":"JOSM"}},
{"type":"Feature","geometry":{"type":"Point","coordinates":[159.8139627,53.7754979]},"properties":{"created_by":"JOSM"}},
{"type":"Feature","geometry":{"type":"Point","coordinates":[159.813772,53.7767801]},"properties":{"created_by":"JOSM"}},
{"type":"Feature","geometry":{"type":"Point","coordinates":[159.8235174,53.7664665]},"properties":{"created_by":"JOSM"}},
{"type":"Feature","geometry":{"type":"Point","coordinates":[159.8226776,53.7677532]},"properties":{"created_by":"JOSM"}},
{"type":"Feature","geometry":{"type":"Point","coordinates":[159.821813,53.7677591]},"properties":{"created_by":"JOSM"}},
{"type":"Feature","geometry":{"type":"Point","coordinates":[159.821823,53.7682715]},"properties":{"created_by":"JOSM"}},
{"type":"Feature","geometry":{"type":"Point","coordinates":[159.8209583,53.7682773]},"properties":{"created_by":"JOSM"}},
{"type":"Feature","geometry":{"type":"Point","coordinates":[159.8197311,53.7718721]},"properties":{"created_by":"JOSM"}},
{"type":"Feature","geometry":{"type":"Point","coordinates":[159.6310335,53.7614862]},"properties":{"created_by":"JOSM"}},
{"type":"Feature","geometry":{"type":"Point","coordinates":[159.6323189,53.7607109]},"properties":{"created_by":"JOSM"}},
{"type":"Feature","geometry":{"type":"Point","coordinates":[159.6327319,53.7594278]},"properties":{"created_by":"JOSM"}},
{"type":"Feature","geometry":{"type":"Point","coordinates":[159.6354161,53.7556584]},"properties":{"created_by":"JOSM"}},
{"type":"Feature","geometry":{"type":"Point","coordinates":[159.6352753,53.7560842]},"properties":{"created_by":"JOSM"}},
{"type":"Feature","geometry":{"type":"Point","coordinates":[159.6361437,53.7563357]},"properties":{"created_by":"JOSM"}},
{"type":"Feature","geometry":{"type":"Point","coordinates":[159.6353255,53.7594142]},"properties":{"created_by":"JOSM"}},
{"type":"Feature","geometry":{"type":"Point","coordinates":[159.6348855,53.7589041]},"properties":{"created_by":"JOSM"}},
{"type":"Feature","geometry":{"type":"Point","coordinates":[159.6361592,53.7573603]},"properties":{"created_by":"JOSM"}},
{"type":"Feature","geometry":{"type":"Point","coordinates":[159.6370237,53.7573558]},"properties":{"created_by":"JOSM"}},
{"type":"Feature","geometry":{"type":"Point","coordinates":[159.6318328,53.7571271]},"properties":{"created_by":"JOSM"}},
{"type":"Feature","geometry":{"type":"Point","coordinates":[159.6297328,53.7612369]},"properties":{"created_by":"JOSM"}},
{"type":"Feature","geometry":{"type":"Point","coordinates":[159.5505235,53.7375467]},"properties":{"created_by":"JOSM"}},
{"type":"Feature","geometry":{"type":"Point","coordinates":[159.6123053,53.7519765]},"properties":{"created_by":"JOSM"}},
{"type":"Feature","geometry":{"type":"Point","coordinates":[159.5982231,53.7543936]},"properties":{"created_by":"JOSM"}},
{"type":"Feature","geometry":{"type":"Point","coordinates":[159.6032658,53.7545839]},"properties":{"created_by":"JOSM"}},
{"type":"Feature","geometry":{"type":"Point","coordinates":[159.59793,53.7545703]},"properties":{"created_by":"JOSM"}},
{"type":"Feature","geometry":{"type":"Point","coordinates":[159.5972056,53.7539744]},"properties":{"created_by":"JOSM"}},
{"type":"Feature","geometry":{"type":"Point","coordinates":[159.5950536,53.7546251]},"properties":{"created_by":"JOSM"}},
{"type":"Feature","geometry":{"type":"Point","coordinates":[159.5976506,53.7548683]},"properties":{"created_by":"JOSM"}},
{"type":"Feature","geometry":{"type":"Point","coordinates":[159.6295873,53.751503]},"properties":{"created_by":"JOSM"}},
{"type":"Feature","geometry":{"type":"Point","coordinates":[159.6135981,53.7517137]},"properties":{"created_by":"JOSM"}},
{"type":"Feature","geometry":{"type":"Point","coordinates":[159.6278642,53.7518959]},"properties":{"created_by":"JOSM"}},
{"type":"Feature","geometry":{"type":"Point","coordinates":[159.5623324,53.7482511]},"properties":{"created_by":"JOSM"}},
{"type":"Feature","geometry":{"type":"Point","coordinates":[159.5599461,53.7474938]},"properties":{"created_by":"JOSM"}},
{"type":"Feature","geometry":{"type":"Point","coordinates":[159.5592596,53.7446792]},"properties":{"created_by":"JOSM"}},
{"type":"Feature","geometry":{"type":"Point","coordinates":[159.5553402,53.7423917]},"properties":{"created_by":"JOSM"}},
{"type":"Feature","geometry":{"type":"Point","coordinates":[159.5516078,53.7377979]},"properties":{"created_by":"JOSM"}},
{"type":"Feature","geometry":{"type":"Point","coordinates":[159.5946159,53.7542433]},"properties":{"created_by":"JOSM"}},
{"type":"Feature","geometry":{"type":"Point","coordinates":[159.5959126,53.7542369]},"properties":{"created_by":"JOSM"}},
{"type":"Feature","geometry":{"type":"Point","coordinates":[159.5954749,53.7538544]},"properties":{"created_by":"JOSM"}},
{"type":"Feature","geometry":{"type":"Point","coordinates":[159.582937,53.7536599]},"properties":{"created_by":"JOSM"}},
{"type":"Feature","geometry":{"type":"Point","coordinates":[159.5807654,53.752902]},"properties":{"created_by":"JOSM"}},
{"type":"Feature","geometry":{"type":"Point","coordinates":[159.5755928,53.7539515]},"properties":{"created_by":"JOSM"}},
{"type":"Feature","geometry":{"type":"Point","coordinates":[159.5682262,53.7525782]},"properties":{"created_by":"JOSM"}},
{"type":"Feature","geometry":{"type":"Point","coordinates":[159.5669072,53.7509188]},"properties":{"created_by":"JOSM"}},
{"type":"Feature","geometry":{"type":"Point","coordinates":[159.5793173,53.7418935]},"properties":{"created_by":"JOSM"}},
{"type":"Feature","geometry":{"type":"Point","coordinates":[159.5771498,53.7413917]},"properties":{"created_by":"JOSM"}},
{"type":"Feature","geometry":{"type":"Point","coordinates":[159.5775819,53.7413896]},"properties":{"created_by":"JOSM"}},
{"type":"Feature","geometry":{"type":"Point","coordinates":[159.5769381,53.7417774]},"properties":{"created_by":"JOSM"}},
{"type":"Feature","geometry":{"type":"Point","coordinates":[159.580215,53.7443233]},"properties":{"created_by":"JOSM"}},
{"type":"Feature","geometry":{"type":"Point","coordinates":[159.5797758,53.7438132]},"properties":{"created_by":"JOSM"}},
{"type":"Feature","geometry":{"type":"Point","coordinates":[159.5793577,53.7448398]},"properties":{"created_by":"JOSM"}},
{"type":"Feature","geometry":{"type":"Point","coordinates":[159.5802326,53.7456041]},"properties":{"created_by":"JOSM"}},
{"type":"Feature","geometry":{"type":"Point","coordinates":[159.5810897,53.7450876]},"properties":{"created_by":"JOSM"}},
{"type":"Feature","geometry":{"type":"Point","coordinates":[159.7166965,53.7397423]},"properties":{"created_by":"JOSM"}},
{"type":"Feature","geometry":{"type":"Point","coordinates":[159.5741007,53.7396132]},"properties":{"created_by":"JOSM"}},
{"type":"Feature","geometry":{"type":"Point","coordinates":[159.5758289,53.7396049]},"properties":{"created_by":"JOSM"}},
{"type":"Feature","geometry":{"type":"Point","coordinates":[159.5784337,53.7404894]},"properties":{"created_by":"JOSM"}},
{"type":"Feature","geometry":{"type":"Point","coordinates":[159.5784373,53.7407455]},"properties":{"created_by":"JOSM"}},
{"type":"Feature","geometry":{"type":"Point","coordinates":[159.5736739,53.7399999]},"properties":{"created_by":"JOSM"}},
{"type":"Feature","geometry":{"type":"Point","coordinates":[159.024943,53.8006721]},"properties":{"created_by":"JOSM"}},
{"type":"Feature","geometry":{"type":"Point","coordinates":[159.0513284,53.7920826]},"properties":{"created_by":"JOSM"}},
{"type":"Feature","geometry":{"type":"Point","coordinates":[159.0495985,53.7925958]},"properties":{"created_by":"JOSM"}},
{"type":"Feature","geometry":{"type":"Point","coordinates":[159.0470024,53.7923406]},"properties":{"created_by":"JOSM"}},
{"type":"Feature","geometry":{"type":"Point","coordinates":[159.0413796,53.7937511]},"properties":{"created_by":"JOSM"}},
{"type":"Feature","geometry":{"type":"Point","coordinates":[159.0361897,53.7959307]},"properties":{"created_by":"JOSM"}},
{"type":"Feature","geometry":{"type":"Point","coordinates":[159.0625612,53.7815746]},"properties":{"created_by":"JOSM"}},
{"type":"Feature","geometry":{"type":"Point","coordinates":[159.0612662,53.7832399]},"properties":{"created_by":"JOSM"}},
{"type":"Feature","geometry":{"type":"Point","coordinates":[159.058458,53.7861875]},"properties":{"created_by":"JOSM"}},
{"type":"Feature","geometry":{"type":"Point","coordinates":[159.0569481,53.78875]},"properties":{"created_by":"JOSM"}},
{"type":"Feature","geometry":{"type":"Point","coordinates":[159.0552218,53.7918246]},"properties":{"created_by":"JOSM"}},
{"type":"Feature","geometry":{"type":"Point","coordinates":[159.5473388,53.7304758]},"properties":{"created_by":"JOSM"}},
{"type":"Feature","geometry":{"type":"Point","coordinates":[159.5523946,53.7319024]},"properties":{"created_by":"JOSM"}},
{"type":"Feature","geometry":{"type":"Point","coordinates":[159.7520911,53.7376038]},"properties":{"created_by":"JOSM"}},
{"type":"Feature","geometry":{"type":"Point","coordinates":[159.7386798,53.7366623]},"properties":{"created_by":"JOSM"}},
{"type":"Feature","geometry":{"type":"Point","coordinates":[159.7591381,53.7330766]},"properties":{"created_by":"JOSM"}},
{"type":"Feature","geometry":{"type":"Point","coordinates":[159.7568227,53.7364216]},"properties":{"created_by":"JOSM"}},
{"type":"Feature","geometry":{"type":"Point","coordinates":[159.7573273,53.7284769]},"properties":{"created_by":"JOSM"}},
{"type":"Feature","geometry":{"type":"Point","coordinates":[159.7145101,53.7382184]},"properties":{"created_by":"JOSM"}},
{"type":"Feature","geometry":{"type":"Point","coordinates":[159.7213988,53.7367676]},"properties":{"created_by":"JOSM"}},
{"type":"Feature","geometry":{"type":"Point","coordinates":[159.7352035,53.7355314]},"properties":{"created_by":"JOSM"}},
{"type":"Feature","geometry":{"type":"Point","coordinates":[159.7085519,53.7436334]},"properties":{"created_by":"JOSM"}},
{"type":"Feature","geometry":{"type":"Point","coordinates":[159.6995054,53.7453511]},"properties":{"created_by":"JOSM"}},
{"type":"Feature","geometry":{"type":"Point","coordinates":[159.6908609,53.7452736]},"properties":{"created_by":"JOSM"}},
{"type":"Feature","geometry":{"type":"Point","coordinates":[159.7072621,53.7440248]},"properties":{"created_by":"JOSM"}},
{"type":"Feature","geometry":{"type":"Point","coordinates":[159.7059786,53.7448009]},"properties":{"created_by":"JOSM"}},
{"type":"Feature","geometry":{"type":"Point","coordinates":[159.6953175,53.7534454]},"properties":{"created_by":"JOSM"}},
{"type":"Feature","geometry":{"type":"Point","coordinates":[159.6959819,53.7544661]},"properties":{"created_by":"JOSM"}},
{"type":"Feature","geometry":{"type":"Point","coordinates":[159.6953725,53.7567754]},"properties":{"created_by":"JOSM"}},
{"type":"Feature","geometry":{"type":"Point","coordinates":[159.6936477,53.7570415]},"properties":{"created_by":"JOSM"}},
{"type":"Feature","geometry":{"type":"Point","coordinates":[159.6891491,53.7463082]},"properties":{"created_by":"JOSM"}},
{"type":"Feature","geometry":{"type":"Point","coordinates":[159.688089,53.7475951]},"properties":{"created_by":"JOSM"}},
{"type":"Feature","geometry":{"type":"Point","coordinates":[159.688131,53.7501566]},"properties":{"created_by":"JOSM"}},
{"type":"Feature","geometry":{"type":"Point","coordinates":[159.6892289,53.7511751]},"properties":{"created_by":"JOSM"}},
{"type":"Feature","geometry":{"type":"Point","coordinates":[159.5633691,53.744916]},"properties":{"created_by":"JOSM"}},
{"type":"Feature","geometry":{"type":"Point","coordinates":[159.5633417,53.7428668]},"properties":{"created_by":"JOSM"}},
{"type":"Feature","geometry":{"type":"Point","coordinates":[159.5785885,53.75176]},"properties":{"created_by":"JOSM"}},
{"type":"Feature","geometry":{"type":"Point","coordinates":[159.5790243,53.7520143]},"properties":{"created_by":"JOSM"}},
{"type":"Feature","geometry":{"type":"Point","coordinates":[159.5785393,53.748174]},"properties":{"created_by":"JOSM"}},
{"type":"Feature","geometry":{"type":"Point","coordinates":[159.5781492,53.7512499]},"properties":{"created_by":"JOSM"}},
{"type":"Feature","geometry":{"type":"Point","coordinates":[159.5782906,53.7508241]},"properties":{"created_by":"JOSM"}},
{"type":"Feature","geometry":{"type":"Point","coordinates":[159.5782802,53.7451012]},"properties":{"created_by":"JOSM"}},
{"type":"Feature","geometry":{"type":"Point","coordinates":[159.5793649,53.7453522]},"properties":{"created_by":"JOSM"}},
{"type":"Feature","geometry":{"type":"Point","coordinates":[159.5773914,53.7433123]},"properties":{"created_by":"JOSM"}},
{"type":"Feature","geometry":{"type":"Point","coordinates":[159.5719665,53.7415452]},"properties":{"created_by":"JOSM"}},
{"type":"Feature","geometry":{"type":"Point","coordinates":[159.575864,53.7421664]},"properties":{"created_by":"JOSM"}},
{"type":"Feature","geometry":{"type":"Point","coordinates":[159.5706735,53.7418075]},"properties":{"created_by":"JOSM"}},
{"type":"Feature","geometry":{"type":"Point","coordinates":[159.5715274,53.7410349]},"properties":{"created_by":"JOSM"}},
{"type":"Feature","geometry":{"type":"Point","coordinates":[159.5719421,53.7397519]},"properties":{"created_by":"JOSM"}},
{"type":"Feature","geometry":{"type":"Point","coordinates":[159.5558945,53.7352165]},"properties":{"created_by":"JOSM"}},
{"type":"Feature","geometry":{"type":"Point","coordinates":[159.5546,53.7353501]},"properties":{"created_by":"JOSM"}},
{"type":"Feature","geometry":{"type":"Point","coordinates":[159.7348318,53.7389916]},"properties":{"created_by":"JOSM"}},
{"type":"Feature","geometry":{"type":"Point","coordinates":[159.7378473,53.7384607]},"properties":{"created_by":"JOSM"}},
{"type":"Feature","geometry":{"type":"Point","coordinates":[159.7326961,53.7404142]},"properties":{"created_by":"JOSM"}},
{"type":"Feature","geometry":{"type":"Point","coordinates":[159.7313933,53.7400373]},"properties":{"created_by":"JOSM"}},
{"type":"Feature","geometry":{"type":"Point","coordinates":[159.7274891,53.7391649]},"properties":{"created_by":"JOSM"}},
{"type":"Feature","geometry":{"type":"Point","coordinates":[159.7600621,53.7364012]},"properties":{"created_by":"JOSM"}},
{"type":"Feature","geometry":{"type":"Point","coordinates":[159.7598491,53.73653]},"properties":{"created_by":"JOSM"}},
{"type":"Feature","geometry":{"type":"Point","coordinates":[159.7590058,53.7376886]},"properties":{"created_by":"JOSM"}},
{"type":"Feature","geometry":{"type":"Point","coordinates":[159.7572938,53.7385956]},"properties":{"created_by":"JOSM"}},
{"type":"Feature","geometry":{"type":"Point","coordinates":[159.7478251,53.7407045]},"properties":{"created_by":"JOSM"}},
{"type":"Feature","geometry":{"type":"Point","coordinates":[159.7421994,53.7402271]},"properties":{"created_by":"JOSM"}},
{"type":"Feature","geometry":{"type":"Point","coordinates":[159.5511589,53.7365191]},"properties":{"created_by":"JOSM"}},
{"type":"Feature","geometry":{"type":"Point","coordinates":[159.569806,53.7415554]},"properties":{"created_by":"JOSM"}},
{"type":"Feature","geometry":{"type":"Point","coordinates":[159.569367,53.7410451]},"properties":{"created_by":"JOSM"}},
{"type":"Feature","geometry":{"type":"Point","coordinates":[159.567215,53.7416952]},"properties":{"created_by":"JOSM"}},
{"type":"Feature","geometry":{"type":"Point","coordinates":[159.6410836,53.7684771]},"properties":{"created_by":"JOSM"}},
{"type":"Feature","geometry":{"type":"Point","coordinates":[159.6337103,53.7669793]},"properties":{"created_by":"JOSM"}},
{"type":"Feature","geometry":{"type":"Point","coordinates":[159.6496716,53.7645882]},"properties":{"created_by":"JOSM"}},
{"type":"Feature","geometry":{"type":"Point","coordinates":[159.6278213,53.7635523]},"properties":{"created_by":"JOSM"}},
{"type":"Feature","geometry":{"type":"Point","coordinates":[159.6306723,53.7662267]},"properties":{"created_by":"JOSM"}},
{"type":"Feature","geometry":{"type":"Point","coordinates":[159.6282267,53.761757]},"properties":{"created_by":"JOSM"}},
{"type":"Feature","geometry":{"type":"Point","coordinates":[159.6677273,53.7580847]},"properties":{"created_by":"JOSM"}},
{"type":"Feature","geometry":{"type":"Point","coordinates":[159.6655844,53.7592499]},"properties":{"created_by":"JOSM"}},
{"type":"Feature","geometry":{"type":"Point","coordinates":[159.6632546,53.7623369]},"properties":{"created_by":"JOSM"}},
{"type":"Feature","geometry":{"type":"Point","coordinates":[159.6780932,53.7575143]},"properties":{"created_by":"JOSM"}},
{"type":"Feature","geometry":{"type":"Point","coordinates":[159.6707368,53.7570434]},"properties":{"created_by":"JOSM"}},
{"type":"Feature","geometry":{"type":"Point","coordinates":[159.6685818,53.7574401]},"properties":{"created_by":"JOSM"}},
{"type":"Feature","geometry":{"type":"Point","coordinates":[159.6576226,53.7615994]},"properties":{"created_by":"JOSM"}},
{"type":"Feature","geometry":{"type":"Point","coordinates":[159.6556642,53.7607132]},"properties":{"created_by":"JOSM"}},
{"type":"Feature","geometry":{"type":"Point","coordinates":[159.66132,53.7629876]},"properties":{"created_by":"JOSM"}},
{"type":"Feature","geometry":{"type":"Point","coordinates":[159.6582879,53.7626204]},"properties":{"created_by":"JOSM"}},
{"type":"Feature","geometry":{"type":"Point","coordinates":[159.6966056,53.7529256]},"properties":{"created_by":"JOSM"}},
{"type":"Feature","geometry":{"type":"Point","coordinates":[159.69486,53.7519111]},"properties":{"created_by":"JOSM"}},
{"type":"Feature","geometry":{"type":"Point","coordinates":[159.6935464,53.7508939]},"properties":{"created_by":"JOSM"}},
{"type":"Feature","geometry":{"type":"Point","coordinates":[159.6926695,53.7501305]},"properties":{"created_by":"JOSM"}},
{"type":"Feature","geometry":{"type":"Point","coordinates":[159.6876528,53.7605338]},"properties":{"created_by":"JOSM"}},
{"type":"Feature","geometry":{"type":"Point","coordinates":[159.6941306,53.7601127]},"properties":{"created_by":"JOSM"}},
{"type":"Feature","geometry":{"type":"Point","coordinates":[159.6954169,53.7594644]},"properties":{"created_by":"JOSM"}},
{"type":"Feature","geometry":{"type":"Point","coordinates":[159.69691,53.7583034]},"properties":{"created_by":"JOSM"}},
{"type":"Feature","geometry":{"type":"Point","coordinates":[159.6974827,53.753689]},"properties":{"created_by":"JOSM"}},
{"type":"Feature","geometry":{"type":"Point","coordinates":[159.725309,53.7380249]},"properties":{"created_by":"JOSM"}},
{"type":"Feature","geometry":{"type":"Point","coordinates":[159.6913602,53.7493696]},"properties":{"created_by":"JOSM"}},
{"type":"Feature","geometry":{"type":"Point","coordinates":[159.6930321,53.745901]},"properties":{"created_by":"JOSM"}},
{"type":"Feature","geometry":{"type":"Point","coordinates":[159.71225,53.7451484]},"properties":{"created_by":"JOSM"}},
{"type":"Feature","geometry":{"type":"Point","coordinates":[159.7107556,53.7461821]},"properties":{"created_by":"JOSM"}},
{"type":"Feature","geometry":{"type":"Point","coordinates":[159.4516699,53.7259202]},"properties":{"created_by":"JOSM"}},
{"type":"Feature","geometry":{"type":"Point","coordinates":[159.447345,53.725424]},"properties":{"created_by":"JOSM"}},
{"type":"Feature","geometry":{"type":"Point","coordinates":[159.4486504,53.7263152]},"properties":{"created_by":"JOSM"}},
{"type":"Feature","geometry":{"type":"Point","coordinates":[159.4499394,53.7256705]},"properties":{"created_by":"JOSM"}},
{"type":"Feature","geometry":{"type":"Point","coordinates":[159.4529711,53.7264276]},"properties":{"created_by":"JOSM"}},
{"type":"Feature","geometry":{"type":"Point","coordinates":[159.4516754,53.7264323]},"properties":{"created_by":"JOSM"}},
{"type":"Feature","geometry":{"type":"Point","coordinates":[159.5727958,53.7389795]},"properties":{"created_by":"JOSM"}},
{"type":"Feature","geometry":{"type":"Point","coordinates":[159.5797265,53.7402269]},"properties":{"created_by":"JOSM"}},
{"type":"Feature","geometry":{"type":"Point","coordinates":[159.5693116,53.7369466]},"properties":{"created_by":"JOSM"}},
{"type":"Feature","geometry":{"type":"Point","coordinates":[159.5627932,53.7341596]},"properties":{"created_by":"JOSM"}},
{"type":"Feature","geometry":{"type":"Point","coordinates":[159.5807353,53.7507251]},"properties":{"created_by":"JOSM"}},
{"type":"Feature","geometry":{"type":"Point","coordinates":[159.5807283,53.7502127]},"properties":{"created_by":"JOSM"}},
{"type":"Feature","geometry":{"type":"Point","coordinates":[159.5821693,53.7450823]},"properties":{"created_by":"JOSM"}},
{"type":"Feature","geometry":{"type":"Point","coordinates":[159.5804796,53.7479084]},"properties":{"created_by":"JOSM"}},
{"type":"Feature","geometry":{"type":"Point","coordinates":[159.5823649,53.7435444]},"properties":{"created_by":"JOSM"}},
{"type":"Feature","geometry":{"type":"Point","coordinates":[159.5967499,53.752311]},"properties":{"created_by":"JOSM"}},
{"type":"Feature","geometry":{"type":"Point","coordinates":[159.6019546,53.7535659]},"properties":{"created_by":"JOSM"}},
{"type":"Feature","geometry":{"type":"Point","coordinates":[159.5928474,53.7514342]},"properties":{"created_by":"JOSM"}},
{"type":"Feature","geometry":{"type":"Point","coordinates":[159.5928582,53.7522027]},"properties":{"created_by":"JOSM"}},
{"type":"Feature","geometry":{"type":"Point","coordinates":[159.5919975,53.7524631]},"properties":{"created_by":"JOSM"}},
{"type":"Feature","geometry":{"type":"Point","coordinates":[159.5924152,53.7514365]},"properties":{"created_by":"JOSM"}},
{"type":"Feature","geometry":{"type":"Point","coordinates":[159.6097066,53.7516058]},"properties":{"created_by":"JOSM"}},
{"type":"Feature","geometry":{"type":"Point","coordinates":[159.6144401,53.7501723]},"properties":{"created_by":"JOSM"}},
{"type":"Feature","geometry":{"type":"Point","coordinates":[159.6269789,53.750492]},"properties":{"created_by":"JOSM"}},
{"type":"Feature","geometry":{"type":"Point","coordinates":[159.6273996,53.7497213]},"properties":{"created_by":"JOSM"}},
{"type":"Feature","geometry":{"type":"Point","coordinates":[159.6286846,53.7489462]},"properties":{"created_by":"JOSM"}},
{"type":"Feature","geometry":{"type":"Point","coordinates":[159.6377445,53.7478736]},"properties":{"created_by":"JOSM"}},
{"type":"Feature","geometry":{"type":"Point","coordinates":[159.6397273,53.7504248]},"properties":{"created_by":"JOSM"}},
{"type":"Feature","geometry":{"type":"Point","coordinates":[159.6394888,53.7488889]},"properties":{"created_by":"JOSM"}},
{"type":"Feature","geometry":{"type":"Point","coordinates":[159.6382446,53.7523535]},"properties":{"created_by":"JOSM"}},
{"type":"Feature","geometry":{"type":"Point","coordinates":[159.63739,53.7529989]},"properties":{"created_by":"JOSM"}},
{"type":"Feature","geometry":{"type":"Point","coordinates":[159.633967,53.7553225]},"properties":{"created_by":"JOSM"}},
{"type":"Feature","geometry":{"type":"Point","coordinates":[159.6346816,53.7552307]},"properties":{"created_by":"JOSM"}},
{"type":"Feature","geometry":{"type":"Point","coordinates":[159.6335966,53.7594232]},"properties":{"created_by":"JOSM"}},
{"type":"Feature","geometry":{"type":"Point","coordinates":[159.6336003,53.7596793]},"properties":{"created_by":"JOSM"}},
{"type":"Feature","geometry":{"type":"Point","coordinates":[159.6348973,53.7596725]},"properties":{"created_by":"JOSM"}},
{"type":"Feature","geometry":{"type":"Point","coordinates":[159.631925,53.7632747]},"properties":{"created_by":"JOSM"}},
{"type":"Feature","geometry":{"type":"Point","coordinates":[159.6316967,53.7625073]},"properties":{"created_by":"JOSM"}},
{"type":"Feature","geometry":{"type":"Point","coordinates":[159.6327975,53.7637823]},"properties":{"created_by":"JOSM"}},
{"type":"Feature","geometry":{"type":"Point","coordinates":[159.6419073,53.7657833]},"properties":{"created_by":"JOSM"}},
{"type":"Feature","geometry":{"type":"Point","coordinates":[159.6371516,53.7658086]},"properties":{"created_by":"JOSM"}},
{"type":"Feature","geometry":{"type":"Point","coordinates":[159.6367134,53.7654263]},"properties":{"created_by":"JOSM"}},
{"type":"Feature","geometry":{"type":"Point","coordinates":[159.6418995,53.7652711]},"properties":{"created_by":"JOSM"}},
{"type":"Feature","geometry":{"type":"Point","coordinates":[159.6397593,53.766691]},"properties":{"created_by":"JOSM"}},
{"type":"Feature","geometry":{"type":"Point","coordinates":[159.6436483,53.7665425]},"properties":{"created_by":"JOSM"}},
{"type":"Feature","geometry":{"type":"Point","coordinates":[159.6371554,53.7660649]},"properties":{"created_by":"JOSM"}},
{"type":"Feature","geometry":{"type":"Point","coordinates":[159.6444954,53.7653847]},"properties":{"created_by":"JOSM"}},
{"type":"Feature","geometry":{"type":"Point","coordinates":[159.645358,53.7652524]},"properties":{"created_by":"JOSM"}},
{"type":"Feature","geometry":{"type":"Point","coordinates":[159.6578156,53.7600613]},"properties":{"created_by":"JOSM"}},
{"type":"Feature","geometry":{"type":"Point","coordinates":[159.6508972,53.7599706]},"properties":{"created_by":"JOSM"}},
{"type":"Feature","geometry":{"type":"Point","coordinates":[159.6491739,53.7603647]},"properties":{"created_by":"JOSM"}},
{"type":"Feature","geometry":{"type":"Point","coordinates":[159.6651197,53.7572031]},"properties":{"created_by":"JOSM"}},
{"type":"Feature","geometry":{"type":"Point","coordinates":[159.6621705,53.7620866]},"properties":{"created_by":"JOSM"}},
{"type":"Feature","geometry":{"type":"Point","coordinates":[159.6595608,53.7610764]},"properties":{"created_by":"JOSM"}},
{"type":"Feature","geometry":{"type":"Point","coordinates":[159.6832884,53.757997]},"properties":{"created_by":"JOSM"}},
{"type":"Feature","geometry":{"type":"Point","coordinates":[159.6815408,53.7568547]},"properties":{"created_by":"JOSM"}},
{"type":"Feature","geometry":{"type":"Point","coordinates":[159.6677029,53.756548]},"properties":{"created_by":"JOSM"}},
{"type":"Feature","geometry":{"type":"Point","coordinates":[159.6938018,53.7574648]},"properties":{"created_by":"JOSM"}},
{"type":"Feature","geometry":{"type":"Point","coordinates":[159.6953767,53.7570314]},"properties":{"created_by":"JOSM"}},
{"type":"Feature","geometry":{"type":"Point","coordinates":[159.6936772,53.7588345]},"properties":{"created_by":"JOSM"}},
{"type":"Feature","geometry":{"type":"Point","coordinates":[159.6863351,53.7592605]},"properties":{"created_by":"JOSM"}},
{"type":"Feature","geometry":{"type":"Point","coordinates":[159.4304616,53.7217709]},"properties":{"created_by":"JOSM"}},
{"type":"Feature","geometry":{"type":"Point","coordinates":[159.4278702,53.7217801]},"properties":{"created_by":"JOSM"}},
{"type":"Feature","geometry":{"type":"Point","coordinates":[159.4343658,53.7234223]},"properties":{"created_by":"JOSM"}},
{"type":"Feature","geometry":{"type":"Point","coordinates":[159.4339313,53.7231677]},"properties":{"created_by":"JOSM"}},
{"type":"Feature","geometry":{"type":"Point","coordinates":[159.4311152,53.7224095]},"properties":{"created_by":"JOSM"}},
{"type":"Feature","geometry":{"type":"Point","coordinates":[159.4313267,53.7218963]},"properties":{"created_by":"JOSM"}},
{"type":"Feature","geometry":{"type":"Point","coordinates":[159.400462,53.7237967]},"properties":{"created_by":"JOSM"}},
{"type":"Feature","geometry":{"type":"Point","coordinates":[159.434358,53.7226539]},"properties":{"created_by":"JOSM"}},
{"type":"Feature","geometry":{"type":"Point","coordinates":[159.4343554,53.7223978]},"properties":{"created_by":"JOSM"}},
{"type":"Feature","geometry":{"type":"Point","coordinates":[159.4360855,53.7226476]},"properties":{"created_by":"JOSM"}},
{"type":"Feature","geometry":{"type":"Point","coordinates":[159.4360882,53.7229037]},"properties":{"created_by":"JOSM"}},
{"type":"Feature","geometry":{"type":"Point","coordinates":[159.5311138,53.7230326]},"properties":{"created_by":"JOSM"}},
{"type":"Feature","geometry":{"type":"Point","coordinates":[159.4352191,53.7223946]},"properties":{"created_by":"JOSM"}},
{"type":"Feature","geometry":{"type":"Point","coordinates":[159.3989438,53.7230332]},"properties":{"created_by":"JOSM"}},
{"type":"Feature","geometry":{"type":"Point","coordinates":[159.3946248,53.7230475]},"properties":{"created_by":"JOSM"}},
{"type":"Feature","geometry":{"type":"Point","coordinates":[159.398074,53.7223953]},"properties":{"created_by":"JOSM"}},
{"type":"Feature","geometry":{"type":"Point","coordinates":[159.3946223,53.7227913]},"properties":{"created_by":"JOSM"}},
{"type":"Feature","geometry":{"type":"Point","coordinates":[159.3937633,53.7233065]},"properties":{"created_by":"JOSM"}},
{"type":"Feature","geometry":{"type":"Point","coordinates":[159.4451745,53.7244074]},"properties":{"created_by":"JOSM"}},
{"type":"Feature","geometry":{"type":"Point","coordinates":[159.446469,53.724274]},"properties":{"created_by":"JOSM"}},
{"type":"Feature","geometry":{"type":"Point","coordinates":[159.4468982,53.7240164]},"properties":{"created_by":"JOSM"}},
{"type":"Feature","geometry":{"type":"Point","coordinates":[159.4494911,53.7241351]},"properties":{"created_by":"JOSM"}},
{"type":"Feature","geometry":{"type":"Point","coordinates":[159.4473219,53.7232462]},"properties":{"created_by":"JOSM"}},
{"type":"Feature","geometry":{"type":"Point","coordinates":[159.762718,53.7279304]},"properties":{"created_by":"JOSM"}},
{"type":"Feature","geometry":{"type":"Point","coordinates":[159.4443108,53.7244106]},"properties":{"created_by":"JOSM"}},
{"type":"Feature","geometry":{"type":"Point","coordinates":[159.4434414,53.7239014]},"properties":{"created_by":"JOSM"}},
{"type":"Feature","geometry":{"type":"Point","coordinates":[159.4438653,53.7231315]},"properties":{"created_by":"JOSM"}},
{"type":"Feature","geometry":{"type":"Point","coordinates":[159.443015,53.7244153]},"properties":{"created_by":"JOSM"}},
{"type":"Feature","geometry":{"type":"Point","coordinates":[159.4404208,53.7241689]},"properties":{"created_by":"JOSM"}},
{"type":"Feature","geometry":{"type":"Point","coordinates":[159.4404153,53.7236565]},"properties":{"created_by":"JOSM"}},
{"type":"Feature","geometry":{"type":"Point","coordinates":[159.4425737,53.72352]},"properties":{"created_by":"JOSM"}},
{"type":"Feature","geometry":{"type":"Point","coordinates":[159.7618402,53.7271676]},"properties":{"created_by":"JOSM"}},
{"type":"Feature","geometry":{"type":"Point","coordinates":[159.7618355,53.7269115]},"properties":{"created_by":"JOSM"}},
{"type":"Feature","geometry":{"type":"Point","coordinates":[159.7622861,53.7279332]},"properties":{"created_by":"JOSM"}},
{"type":"Feature","geometry":{"type":"Point","coordinates":[159.7626577,53.7246006]},"properties":{"created_by":"JOSM"}},
{"type":"Feature","geometry":{"type":"Point","coordinates":[159.4559727,53.7243668]},"properties":{"created_by":"JOSM"}},
{"type":"Feature","geometry":{"type":"Point","coordinates":[159.4533784,53.7241205]},"properties":{"created_by":"JOSM"}},
{"type":"Feature","geometry":{"type":"Point","coordinates":[159.4546742,53.7241156]},"properties":{"created_by":"JOSM"}},
{"type":"Feature","geometry":{"type":"Point","coordinates":[159.4559755,53.7246229]},"properties":{"created_by":"JOSM"}},
{"type":"Feature","geometry":{"type":"Point","coordinates":[159.4533811,53.7243766]},"properties":{"created_by":"JOSM"}},
{"type":"Feature","geometry":{"type":"Point","coordinates":[159.346642,53.7183288]},"properties":{"created_by":"JOSM"}},
{"type":"Feature","geometry":{"type":"Point","coordinates":[159.3466484,53.7190973]},"properties":{"created_by":"JOSM"}},
{"type":"Feature","geometry":{"type":"Point","coordinates":[159.3475163,53.719607]},"properties":{"created_by":"JOSM"}},
{"type":"Feature","geometry":{"type":"Point","coordinates":[159.3531415,53.7208714]},"properties":{"created_by":"JOSM"}},
{"type":"Feature","geometry":{"type":"Point","coordinates":[159.353133,53.7198468]},"properties":{"created_by":"JOSM"}},
{"type":"Feature","geometry":{"type":"Point","coordinates":[159.8245238,53.718555]},"properties":{"created_by":"JOSM"}},
{"type":"Feature","geometry":{"type":"Point","coordinates":[159.8238003,53.7257329]},"properties":{"created_by":"JOSM"}},
{"type":"Feature","geometry":{"type":"Point","coordinates":[159.8277931,53.731085]},"properties":{"created_by":"JOSM"}},
{"type":"Feature","geometry":{"type":"Point","coordinates":[159.827603,53.7323673]},"properties":{"created_by":"JOSM"}},
{"type":"Feature","geometry":{"type":"Point","coordinates":[159.8229732,53.7165163]},"properties":{"created_by":"JOSM"}},
{"type":"Feature","geometry":{"type":"Point","coordinates":[159.3466316,53.7170479]},"properties":{"created_by":"JOSM"}},
{"type":"Feature","geometry":{"type":"Point","coordinates":[159.3470633,53.7170466]},"properties":{"created_by":"JOSM"}},
{"type":"Feature","geometry":{"type":"Point","coordinates":[159.3466337,53.717304]},"properties":{"created_by":"JOSM"}},
{"type":"Feature","geometry":{"type":"Point","coordinates":[159.3488025,53.7184501]},"properties":{"created_by":"JOSM"}},
{"type":"Feature","geometry":{"type":"Point","coordinates":[159.352267,53.7195932]},"properties":{"created_by":"JOSM"}},
{"type":"Feature","geometry":{"type":"Point","coordinates":[159.8100693,53.752981]},"properties":{"created_by":"JOSM"}},
{"type":"Feature","geometry":{"type":"Point","coordinates":[159.8096272,53.7524716]},"properties":{"created_by":"JOSM"}},
{"type":"Feature","geometry":{"type":"Point","coordinates":[159.8094662,53.7552906]},"properties":{"created_by":"JOSM"}},
{"type":"Feature","geometry":{"type":"Point","coordinates":[159.8087924,53.7540143]},"properties":{"created_by":"JOSM"}},
{"type":"Feature","geometry":{"type":"Point","coordinates":[159.8103996,53.7588708]},"properties":{"created_by":"JOSM"}},
{"type":"Feature","geometry":{"type":"Point","coordinates":[159.8105508,53.7555395]},"properties":{"created_by":"JOSM"}},
{"type":"Feature","geometry":{"type":"Point","coordinates":[159.8149324,53.7585839]},"properties":{"created_by":"JOSM"}},
{"type":"Feature","geometry":{"type":"Point","coordinates":[159.8134327,53.7592341]},"properties":{"created_by":"JOSM"}},
{"type":"Feature","geometry":{"type":"Point","coordinates":[159.8002655,53.7488196]},"properties":{"created_by":"JOSM"}},
{"type":"Feature","geometry":{"type":"Point","coordinates":[159.8028682,53.7493144]},"properties":{"created_by":"JOSM"}},
{"type":"Feature","geometry":{"type":"Point","coordinates":[159.801994,53.7488081]},"properties":{"created_by":"JOSM"}},
{"type":"Feature","geometry":{"type":"Point","coordinates":[159.8062787,53.7468583]},"properties":{"created_by":"JOSM"}},
{"type":"Feature","geometry":{"type":"Point","coordinates":[159.8067599,53.7494168]},"properties":{"created_by":"JOSM"}},
{"type":"Feature","geometry":{"type":"Point","coordinates":[159.8100003,53.7493951]},"properties":{"created_by":"JOSM"}},
{"type":"Feature","geometry":{"type":"Point","coordinates":[159.807575,53.7468496]},"properties":{"created_by":"JOSM"}},
{"type":"Feature","geometry":{"type":"Point","coordinates":[159.7967332,53.7448729]},"properties":{"created_by":"JOSM"}},
{"type":"Feature","geometry":{"type":"Point","coordinates":[159.791099,53.7440131]},"properties":{"created_by":"JOSM"}},
{"type":"Feature","geometry":{"type":"Point","coordinates":[159.7898147,53.7446623]},"properties":{"created_by":"JOSM"}},
{"type":"Feature","geometry":{"type":"Point","coordinates":[159.7915936,53.7473401]},"properties":{"created_by":"JOSM"}},
{"type":"Feature","geometry":{"type":"Point","coordinates":[159.7933271,53.7475848]},"properties":{"created_by":"JOSM"}},
{"type":"Feature","geometry":{"type":"Point","coordinates":[159.794638,53.7483446]},"properties":{"created_by":"JOSM"}},